{"polygon":"geojson/county_18.geojson","registered":"256256","code":"284AEDED-148D-45CB-AF1A-2DA58D96581F","name":"NYANDARUA","center":{"lat":-0.319613,"lon":36.482261},"status":"SUCCESS","region":{"location_type":"constituency","locations":[{"polygon":"geojson/constituency_89.geojson","registered":"85317","code":"6AB20798-C0ED-4E88-B06E-E55DF08365E4","name":"KINANGOP","center":{"lat":-0.644002,"lon":36.59227}},{"polygon":"geojson/constituency_90.geojson","registered":"39768","code":"F55BDE81-B485-45B5-9EC0-DA373B4245FC","name":"KIPIPIRI","center":{"lat":-0.381661,"lon":36.506798}},{"polygon":"geojson/constituency_93.geojson","registered":"41725","code":"228FA47C-10A3-4E0B-BB82-0D050BBF5A79","name":"NDARAGWA","center":{"lat":-0.089288,"lon":36.529088}},{"polygon":"geojson/constituency_92.geojson","registered":"39570","code":"D08AA109-8C04-4DCE-B765-07AD379F01DF","name":"OL JOROK","center":{"lat":-0.090737,"lon":36.333187}},{"polygon":"geojson/constituency_91.geojson","registered":"50026","code":"ADA0E89C-9C4D-4A22-AD72-1B02BCBCB299","name":"OL KALOU","center":{"lat":-0.276695,"lon":36.334159}}]}}