{"polygon":"geojson/county_2.geojson","registered":"166718","code":"59D293CE-7B8A-4C98-B94A-1C3300503545","name":"KWALE","center":{"lat":-4.18069,"lon":39.189782},"status":"SUCCESS","region":{"location_type":"constituency","locations":[{"polygon":"geojson/constituency_10.geojson","registered":"52088","code":"9968735A-8D82-45DC-BF3D-9E4D4915489A","name":"KINANGO","center":{"lat":-3.979582,"lon":39.104945}},{"polygon":"geojson/constituency_8.geojson","registered":"34437","code":"CCA3424B-9657-4867-8070-4DD6BC0E1933","name":"LUNGALUNGA","center":{"lat":-4.46147,"lon":39.109774}},{"polygon":"geojson/constituency_9.geojson","registered":"46265","code":"E9F1D35C-EE03-4D88-8025-B6102E5A2A20","name":"MATUGA","center":{"lat":-4.244685,"lon":39.433834}},{"polygon":"geojson/constituency_7.geojson","registered":"42382","code":"5B79663B-17D2-47FC-8FFD-E0DA84F6A2D6","name":"MSAMBWENI","center":{"lat":-4.435073,"lon":39.512627}}]}}