{"polygon":"geojson/county_23.geojson","registered":"134222","code":"5E80D4CE-77E8-4FCF-9752-E5FA9ECB8B28","name":"TURKANA","center":{"lat":3.427307,"lon":35.435139},"status":"SUCCESS","region":{"location_type":"constituency","locations":[{"polygon":"geojson/constituency_126.geojson","registered":"18846","code":"E1B96639-BCEB-4B4D-8558-3057F48B19F8","name":"LOIMA","center":{"lat":3.028232,"lon":35.141419}},{"polygon":"geojson/constituency_125.geojson","registered":"34646","code":"002C2341-168A-471E-9BE5-CE92FB4C257D","name":"TURKANA CENTRAL","center":{"lat":3.16652,"lon":35.911839}},{"polygon":"geojson/constituency_128.geojson","registered":"11317","code":"56B691DB-1682-4542-998C-5D96C3052E26","name":"TURKANA EAST","center":{"lat":1.883892,"lon":36.198204}},{"polygon":"geojson/constituency_123.geojson","registered":"23896","code":"56CC9BDF-1B31-4DAF-9CD6-6ADCAE7EA568","name":"TURKANA NORTH","center":{"lat":4.45624,"lon":35.482351}},{"polygon":"geojson/constituency_127.geojson","registered":"24035","code":"8080D901-EA3A-48BB-AFB6-8E6FD673687E","name":"TURKANA SOUTH","center":{"lat":2.380949,"lon":35.699931}},{"polygon":"geojson/constituency_124.geojson","registered":"21509","code":"4F9CB004-44D1-4761-9EED-4209A60DB2CE","name":"TURKANA WEST","center":{"lat":4.074604,"lon":34.635678}}]}}