{"polygon":"geojson/county_41.geojson","registered":"314265","code":"5F00A163-DEEA-4017-BC56-DB6AA8559C0F","name":"SIAYA","center":{"lat":-0.059673,"lon":34.247028},"status":"SUCCESS","region":{"location_type":"constituency","locations":[{"polygon":"geojson/constituency_234.geojson","registered":"72746","code":"7D2AB57B-5A17-4FEB-A19F-5A174B7BC46C","name":"ALEGO USONGA","center":{"lat":0.064157,"lon":34.232099}},{"polygon":"geojson/constituency_236.geojson","registered":"59964","code":"B93B5DBD-F6C5-45BF-8099-7AC904E207AC","name":"BONDO","center":{"lat":-0.161981,"lon":34.127597}},{"polygon":"geojson/constituency_235.geojson","registered":"56212","code":"399787D4-7F60-49A1-8AA5-5F68C07F6D28","name":"GEM","center":{"lat":0.048855,"lon":34.452667}},{"polygon":"geojson/constituency_237.geojson","registered":"50849","code":"0F97B6AF-54C9-4106-9744-EF9266595EDD","name":"RARIEDA","center":{"lat":-0.251341,"lon":34.351802}},{"polygon":"geojson/constituency_232.geojson","registered":"39940","code":"ECD2F03E-B173-4E0C-B62E-D124593A0644","name":"UGENYA","center":{"lat":0.238977,"lon":34.225533}},{"polygon":"geojson/constituency_233.geojson","registered":"34606","code":"F800D571-3FD2-4B70-B6C4-8122B8D4352B","name":"UGUNJA","center":{"lat":0.194415,"lon":34.334598}}]}}