{"polygon":"geojson/county_46.geojson","registered":"221112","code":"6DD2AEC8-6C47-4415-9F3B-700F24425711","name":"NYAMIRA","center":{"lat":-0.64027,"lon":34.964044},"status":"SUCCESS","region":{"location_type":"constituency","locations":[{"polygon":"geojson/constituency_273.geojson","registered":"41899","code":"8B6ECC33-852B-4D20-A701-978DE624E552","name":"BORABU","center":{"lat":-0.713771,"lon":35.021785}},{"polygon":"geojson/constituency_270.geojson","registered":"77314","code":"7547B055-E788-42B2-856D-A4E6E8918F72","name":"KITUTU MASABA","center":{"lat":-0.688534,"lon":34.902158}},{"polygon":"geojson/constituency_272.geojson","registered":"42172","code":"CBD03880-7E9A-49F9-84E6-714A4E495C06","name":"NORTH MUGIRANGO","center":{"lat":-0.501335,"lon":34.992797}},{"polygon":"geojson/constituency_271.geojson","registered":"59956","code":"D7E93F71-1DD0-451C-92C8-AADD9EF567CD","name":"WEST MUGIRANGO","center":{"lat":-0.583596,"lon":34.929636}}]}}