{"polygon":"geojson/county_39.geojson","registered":"413040","code":"89622043-0BAE-41AB-8A25-D684A2F31DBC","name":"BUNGOMA","center":{"lat":0.75174,"lon":34.639847},"status":"SUCCESS","region":{"location_type":"constituency","locations":[{"polygon":"geojson/constituency_219.geojson","registered":"53340","code":"2CD6EDFB-B3D9-441F-BFFF-2D4ADAA80F65","name":"BUMULA","center":{"lat":0.566062,"lon":34.456255}},{"polygon":"geojson/constituency_218.geojson","registered":"40986","code":"5276BD2D-B5DC-4AF3-B929-810D57353CF8","name":"KABUCHAI","center":{"lat":0.692551,"lon":34.602713}},{"polygon":"geojson/constituency_220.geojson","registered":"77007","code":"18029AE0-5EA5-4A7C-83B3-6614D45A9F78","name":"KANDUYI","center":{"lat":0.55673,"lon":34.591743}},{"polygon":"geojson/constituency_223.geojson","registered":"37716","code":"B21AC211-880E-4175-802C-06E22A602EAF","name":"KIMILILI","center":{"lat":0.785175,"lon":34.733495}},{"polygon":"geojson/constituency_216.geojson","registered":"49983","code":"A2CAA68B-A05C-4626-AF13-213C226513E4","name":"MT. ELGON","center":{"lat":0.92717,"lon":34.596096}},{"polygon":"geojson/constituency_217.geojson","registered":"30003","code":"00A8273E-8500-4542-9447-953E170E43FE","name":"SIRISIA","center":{"lat":0.745145,"lon":34.471808}},{"polygon":"geojson/constituency_224.geojson","registered":"53933","code":"74C69FAF-63DF-4403-91E6-EB77324DB0B3","name":"TONGAREN","center":{"lat":0.782765,"lon":34.927083}},{"polygon":"geojson/constituency_221.geojson","registered":"32566","code":"6E3B2513-4794-4159-818A-7F67D5896E4F","name":"WEBUYE EAST","center":{"lat":0.660835,"lon":34.786017}},{"polygon":"geojson/constituency_222.geojson","registered":"38048","code":"B1E5F74E-A70A-472D-A292-A2B9B293364D","name":"WEBUYE WEST","center":{"lat":0.624864,"lon":34.702303}}]}}