{
    "polygon": "geojson/county_37.geojson",
    "registered": "570620",
    "code": "9231B2F3-C39D-47C8-B7F2-EFE81CF3F91B",
    "name": "KAKAMEGA",
    "center": {
        "lat": 0.406141,
        "lon": 34.7439
    },
    "status": "SUCCESS",
    "region": {
        "location_type": "constituency",
        "locations": [
            {
                "polygon": "geojson/constituency_207.geojson",
                "registered": "49907",
                "code": "7A817B0C-6334-47EA-902B-CA6DA24FADA7",
                "name": "BUTERE",
                "center": {
                    "lat": 0.222388,
                    "lon": 34.523482
                }
            },
            {
                "polygon": "geojson/constituency_210.geojson",
                "registered": "37592",
                "code": "C96A21BE-6BB7-460A-A000-828F3168022A",
                "name": "IKOLOMANI",
                "center": {
                    "lat": 0.192293,
                    "lon": 34.70886
                }
            },
            {
                "polygon": "geojson/constituency_208.geojson",
                "registered": "38699",
                "code": "0754A339-90D7-47AD-96FE-B1B54ACDA1F9",
                "name": "KHWISERO",
                "center": {
                    "lat": 0.147899,
                    "lon": 34.582292
                }
            },
            {
                "polygon": "geojson/constituency_200.geojson",
                "registered": "42990",
                "code": "994607E3-9023-4DE2-A177-12BB3932E382",
                "name": "LIKUYANI",
                "center": {
                    "lat": 0.763804,
                    "lon": 35.089894
                }
            },
            {
                "polygon": "geojson/constituency_199.geojson",
                "registered": "57306",
                "code": "CFB0877C-7833-4CA7-AEBD-5C3A2B19D994",
                "name": "LUGARI",
                "center": {
                    "lat": 0.645995,
                    "lon": 34.91525
                }
            },
            {
                "polygon": "geojson/constituency_202.geojson",
                "registered": "61677",
                "code": "C9C49D9F-0DD0-4D75-8829-D356B062EE97",
                "name": "LURAMBI",
                "center": {
                    "lat": 0.287159,
                    "lon": 34.702002
                }
            },
            {
                "polygon": "geojson/constituency_201.geojson",
                "registered": "66522",
                "code": "20490983-7016-487C-93BE-A3D8F93D11FA",
                "name": "MALAVA",
                "center": {
                    "lat": 0.451759,
                    "lon": 34.834448
                }
            },
            {
                "polygon": "geojson/constituency_206.geojson",
                "registered": "46058",
                "code": "84032E32-640A-48D2-A69A-2898E3C0A6C9",
                "name": "MATUNGU",
                "center": {
                    "lat": 0.407822,
                    "lon": 34.459772
                }
            },
            {
                "polygon": "geojson/constituency_205.geojson",
                "registered": "34449",
                "code": "1B0ACD00-4AA4-4628-B7E9-B98C24D19730",
                "name": "MUMIAS EAST",
                "center": {
                    "lat": 0.3297,
                    "lon": 34.56536
                }
            },
            {
                "polygon": "geojson/constituency_204.geojson",
                "registered": "37684",
                "code": "1DCBBC43-8B04-42EC-AD40-B5AE660154A8",
                "name": "MUMIAS WEST",
                "center": {
                    "lat": 0.275913,
                    "lon": 34.443505
                }
            },
            {
                "polygon": "geojson/constituency_203.geojson",
                "registered": "41639",
                "code": "C3FBA509-581E-4D3B-850C-495204129EC6",
                "name": "NAVAKHOLO",
                "center": {
                    "lat": 0.399803,
                    "lon": 34.673984
                }
            },
            {
                "polygon": "geojson/constituency_209.geojson",
                "registered": "56229",
                "code": "730FE66F-35C9-4A88-8CE2-99684995EEBB",
                "name": "SHINYALU",
                "center": {
                    "lat": 0.27348,
                    "lon": 34.857615
                }
            }
        ]
    }
}