{"polygon":"geojson/county_14.geojson","registered":"228332","code":"A1A57DE0-D7CC-4B33-8906-7F25B5C0EEC1","name":"EMBU","center":{"lat":-0.601522,"lon":37.625887},"status":"SUCCESS","region":{"location_type":"constituency","locations":[{"polygon":"geojson/constituency_63.geojson","registered":"74820","code":"65034129-042C-4FC8-99D5-E43A39A642AE","name":"MANYATTA","center":{"lat":-0.416462,"lon":37.459881}},{"polygon":"geojson/constituency_66.geojson","registered":"36772","code":"372CEFCE-70A2-4B2A-920A-052E62E5A44F","name":"MBEERE NORTH","center":{"lat":-0.539398,"lon":37.767574}},{"polygon":"geojson/constituency_65.geojson","registered":"50384","code":"13FD14B2-CF20-4D20-81C1-93EB8DA5C198","name":"MBEERE SOUTH","center":{"lat":-0.743277,"lon":37.609371}},{"polygon":"geojson/constituency_64.geojson","registered":"66368","code":"13FEF90A-8183-4D27-8AB3-98FB33AF7DBB","name":"RUNYENJES","center":{"lat":-0.402893,"lon":37.561233}}]}}