{"polygon":"geojson/county_12.geojson","registered":"488578","code":"A5FC9363-BB5E-4968-8465-4354D1022A0B","name":"MERU","center":{"lat":0.169236,"lon":37.763423},"status":"SUCCESS","region":{"location_type":"constituency","locations":[{"polygon":"geojson/constituency_57.geojson","registered":"53839","code":"F0A8813C-EFFE-415A-AD99-069C63F352A0","name":"BUURI","center":{"lat":0.087303,"lon":37.397816}},{"polygon":"geojson/constituency_58.geojson","registered":"51086","code":"7E161A37-0F2F-46C1-8B2F-D35EDC2D4E47","name":"CENTRAL IMENTI","center":{"lat":-0.040134,"lon":37.682817}},{"polygon":"geojson/constituency_52.geojson","registered":"56481","code":"63CF443D-E706-4145-BA52-BBE5E365CBFA","name":"IGEMBE CENTRAL","center":{"lat":0.30244,"lon":37.996523}},{"polygon":"geojson/constituency_53.geojson","registered":"44231","code":"E61AFB85-993F-4509-88FE-89857DC3DE1A","name":"IGEMBE NORTH","center":{"lat":0.466679,"lon":37.98788}},{"polygon":"geojson/constituency_51.geojson","registered":"45929","code":"548B2F9E-854B-44C9-8652-A90AB6BF78E1","name":"IGEMBE SOUTH","center":{"lat":0.09489,"lon":38.142364}},{"polygon":"geojson/constituency_56.geojson","registered":"62699","code":"2D41C8E2-DDB2-48B1-A56E-BBB7A8AA2D8F","name":"NORTH IMENTI","center":{"lat":0.057105,"lon":37.716176}},{"polygon":"geojson/constituency_59.geojson","registered":"80780","code":"8F857ED8-9588-4C6A-9027-9E604A0D016F","name":"SOUTH IMENTI","center":{"lat":-0.123592,"lon":37.608018}},{"polygon":"geojson/constituency_55.geojson","registered":"49900","code":"57E5A8CE-9E5C-49FD-8A48-CB4121F848D6","name":"TIGANIA EAST","center":{"lat":0.278907,"lon":37.770745}},{"polygon":"geojson/constituency_54.geojson","registered":"43659","code":"009ADFE0-51C3-4E07-9A59-2B361FB6DAF4","name":"TIGANIA WEST","center":{"lat":0.189477,"lon":37.720838}}]}}