{"polygon":"geojson/county_33.geojson","registered":"263609","code":"BF91B05F-CA08-40FA-B2BE-C78B71753FD0","name":"NAROK","center":{"lat":-1.252328,"lon":35.575712},"status":"SUCCESS","region":{"location_type":"constituency","locations":[{"polygon":"geojson/constituency_178.geojson","registered":"28779","code":"C893CFF0-F4CD-4D90-A75A-F5FA22CC3A47","name":"EMURUA DIKIRR","center":{"lat":-0.986714,"lon":35.080385}},{"polygon":"geojson/constituency_177.geojson","registered":"51223","code":"18431CDF-020E-4EC6-A4D4-EF7851D2B6F0","name":"KILGORIS","center":{"lat":-1.179114,"lon":34.877529}},{"polygon":"geojson/constituency_180.geojson","registered":"29002","code":"2764E1C6-2C56-4FDF-AA87-1A0A4542CE40","name":"NAROK EAST","center":{"lat":-1.129034,"lon":36.119147}},{"polygon":"geojson/constituency_179.geojson","registered":"59849","code":"B18C683D-04DF-48C1-9572-B1909E7A8009","name":"NAROK NORTH","center":{"lat":-0.815994,"lon":35.859101}},{"polygon":"geojson/constituency_181.geojson","registered":"50071","code":"A8E03C1D-DF02-4780-A6D4-931DEC1D4B2D","name":"NAROK SOUTH","center":{"lat":-1.449976,"lon":35.792043}},{"polygon":"geojson/constituency_182.geojson","registered":"44715","code":"F1DB45B2-A907-483C-B61C-A1C1942A3AC6","name":"NAROK WEST","center":{"lat":-1.388095,"lon":35.3847}}]}}