{"polygon":"geojson/county_38.geojson","registered":"204454","code":"C8FC1176-8524-46F5-BE01-0C872130ABB5","name":"VIHIGA","center":{"lat":0.078717,"lon":34.721702},"status":"SUCCESS","region":{"location_type":"constituency","locations":[{"polygon":"geojson/constituency_215.geojson","registered":"31428","code":"0A272716-0F9C-4BB2-902D-45168C7E788A","name":"EMUHAYA","center":{"lat":0.08806,"lon":34.614694}},{"polygon":"geojson/constituency_213.geojson","registered":"53953","code":"A9C8CB56-83DA-4CCE-A799-E37B51ABD3A9","name":"HAMISI","center":{"lat":0.098125,"lon":34.821339}},{"polygon":"geojson/constituency_214.geojson","registered":"36418","code":"55BABC23-9ABD-4602-AF42-2997250BF1B6","name":"LUANDA","center":{"lat":0.024001,"lon":34.600191}},{"polygon":"geojson/constituency_212.geojson","registered":"48845","code":"94D62E96-2FF4-40CA-8505-CCEA6C747525","name":"SABATIA","center":{"lat":0.114872,"lon":34.755464}},{"polygon":"geojson/constituency_211.geojson","registered":"33896","code":"AF718B0A-3AD4-4B84-8C3A-3D3DAAD43304","name":"VIHIGA","center":{"lat":0.035199,"lon":34.692326}}]}}