{"polygon":"geojson/county_1.geojson","registered":"408707","code":"F52AE5D1-EADF-4079-B206-3EDB8D4966C0","name":"MOMBASA","center":{"lat":-4.018804,"lon":39.650008},"status":"SUCCESS","region":{"location_type":"constituency","locations":[{"polygon":"geojson/constituency_1.geojson","registered":"59175","code":"7BF933C9-6FF1-4875-9762-DBF3F98C5FF6","name":"CHANGAMWE","center":{"lat":-4.026797,"lon":39.614571}},{"polygon":"geojson/constituency_2.geojson","registered":"50765","code":"19F2BB3D-76D1-491E-B183-2BBAA6B83C9D","name":"JOMVU","center":{"lat":-3.996042,"lon":39.604102}},{"polygon":"geojson/constituency_3.geojson","registered":"79839","code":"C201CC94-2199-4921-90F4-4CE62FF33E24","name":"KISAUNI","center":{"lat":-3.971323,"lon":39.68524}},{"polygon":"geojson/constituency_5.geojson","registered":"58026","code":"564AF869-454F-4EE8-A254-EEE018CB3B90","name":"LIKONI","center":{"lat":-4.094062,"lon":39.633005}},{"polygon":"geojson/constituency_6.geojson","registered":"81366","code":"97F3A203-BD0C-4CD8-89DF-B93FC22E837E","name":"MVITA","center":{"lat":-4.051462,"lon":39.661376}},{"polygon":"geojson/constituency_4.geojson","registered":"79574","code":"628A6127-6770-4321-A65B-E07FE93AA527","name":"NYALI","center":{"lat":-4.030199,"lon":39.703432}}]}}