{"polygon":"geojson/county_26.geojson","registered":"245770","code":"FE1E311A-2A7A-4D70-8EE6-C26C9D01F1E1","name":"TRANS NZOIA","center":{"lat":1.053408,"lon":34.956803},"status":"SUCCESS","region":{"location_type":"constituency","locations":[{"polygon":"geojson/constituency_140.geojson","registered":"57858","code":"3AA7B419-1300-4811-93D3-6FD6808D2AF2","name":"CHERANGANY","center":{"lat":1.026251,"lon":35.191681}},{"polygon":"geojson/constituency_137.geojson","registered":"29096","code":"EB6400A4-CD4B-4703-B51C-69A28FF3AF21","name":"ENDEBESS","center":{"lat":1.127767,"lon":34.772224}},{"polygon":"geojson/constituency_139.geojson","registered":"55773","code":"C12FD0E7-1F66-44F8-BE8A-2D7E607DE616","name":"KIMININI","center":{"lat":0.922091,"lon":34.970954}},{"polygon":"geojson/constituency_136.geojson","registered":"47111","code":"F9013124-460B-41F8-A31B-AD5220BFEEC9","name":"KWANZA","center":{"lat":1.147964,"lon":34.979313}},{"polygon":"geojson/constituency_138.geojson","registered":"56023","code":"DFDD5B4D-26EF-4CE9-B4CE-C1E9AEE33305","name":"SABOTI","center":{"lat":0.973901,"lon":34.845263}}]}}