{"polygon":"geojson/constituency_45.geojson","registered":"38826","code":"101DEE1C-EB6B-442D-B371-45995E986012","name":"MOYALE","center":{"lat":3.141445,"lon":38.823207},"status":"SUCCESS","region":{"location_type":"ward","locations":[{"polygon":"geojson/ward_221.geojson","registered":"3755","code":"DFE72F65-F9CB-460B-9385-830A1A42EB59","name":"BUTIYE","center":{"lat":3.055126,"lon":38.999231}},{"polygon":"geojson/ward_224.geojson","registered":"5688","code":"C8FBFE55-7899-4E1B-B77D-5156BC536466","name":"GOLBO","center":{"lat":3.236453,"lon":39.210795}},{"polygon":"geojson/ward_223.geojson","registered":"10182","code":"BE215239-7378-457B-977C-F0CD80126938","name":"HEILLU/MANYATTA","center":{"lat":3.499874,"lon":39.11157}},{"polygon":"geojson/ward_225.geojson","registered":"8278","code":"4A86F248-7E39-42B9-BD9C-F194473118EB","name":"MOYALE TOWNSHIP","center":{"lat":3.500195,"lon":39.061306}},{"polygon":"geojson/ward_227.geojson","registered":"2133","code":"EC833E85-1DD5-44BE-AA3D-D6B9E11A520A","name":"OBBU","center":{"lat":3.173138,"lon":38.785069}},{"polygon":"geojson/ward_222.geojson","registered":"4687","code":"96828188-BD36-4FCC-AA09-E333B09460CB","name":"SOLOLO","center":{"lat":3.554005,"lon":38.683471}},{"polygon":"geojson/ward_226.geojson","registered":"4087","code":"281238AA-4A9E-4BC3-A13D-6BDFCFFA7B65","name":"URAN","center":{"lat":3.103188,"lon":38.581135}}]}}