{"polygon":"geojson/constituency_16.geojson","registered":"56066","code":"13F0E4D3-C416-4E39-B423-514D99F99230","name":"MALINDI","center":{"lat":-3.211497,"lon":39.913623},"status":"SUCCESS","region":{"location_type":"ward","locations":[{"polygon":"geojson/ward_77.geojson","registered":"10313","code":"0B4153BB-BBC7-4B06-AE59-69A5D0EE82BF","name":"GANDA","center":{"lat":-3.241881,"lon":40.066316}},{"polygon":"geojson/ward_75.geojson","registered":"6402","code":"5EE3FA95-DF56-4CAF-B510-2682BE6E1940","name":"JILORE","center":{"lat":-3.212679,"lon":39.828669}},{"polygon":"geojson/ward_76.geojson","registered":"5024","code":"5778ED73-C69B-4D0D-B4B3-C66CB61DD980","name":"KAKUYUNI","center":{"lat":-3.196879,"lon":39.987339}},{"polygon":"geojson/ward_78.geojson","registered":"17290","code":"569C1195-EC48-4071-804A-0CDD436A7998","name":"MALINDI TOWN","center":{"lat":-3.215072,"lon":40.087811}},{"polygon":"geojson/ward_79.geojson","registered":"17037","code":"FBDA665E-E59D-4A47-A1C5-26424F0C850E","name":"SHELLA","center":{"lat":-3.235194,"lon":40.118072}}]}}