{"polygon":"geojson/constituency_65.geojson","registered":"50384","code":"13FD14B2-CF20-4D20-81C1-93EB8DA5C198","name":"MBEERE SOUTH","center":{"lat":-0.743277,"lon":37.609371},"status":"SUCCESS","region":{"location_type":"ward","locations":[{"polygon":"geojson/ward_327.geojson","registered":"5428","code":"81182770-A9A4-4CB7-AD73-00346DAD4E99","name":"KIAMBERE","center":{"lat":-0.719119,"lon":37.823347}},{"polygon":"geojson/ward_324.geojson","registered":"6772","code":"0D3D2B88-F507-4C56-83ED-EFE12B738E05","name":"MAKIMA","center":{"lat":-0.810243,"lon":37.536755}},{"polygon":"geojson/ward_326.geojson","registered":"13184","code":"95694D73-BFE3-4577-A9A0-0387842BEC3E","name":"MAVURIA","center":{"lat":-0.731412,"lon":37.685158}},{"polygon":"geojson/ward_325.geojson","registered":"12310","code":"6E6EBA73-AF6E-48B1-ACF0-01DCE042FC81","name":"MBETI SOUTH","center":{"lat":-0.655704,"lon":37.545541}},{"polygon":"geojson/ward_323.geojson","registered":"12688","code":"B9E38B23-447A-45B7-BDC3-9DDFAE918A25","name":"MWEA","center":{"lat":-0.798737,"lon":37.376746}}]}}