{"polygon":"geojson/constituency_38.geojson","registered":"30448","code":"147115CA-62C2-4586-AB41-EADC7710BEBA","name":"WAJIR SOUTH","center":{"lat":0.988037,"lon":40.35788},"status":"SUCCESS","region":{"location_type":"ward","locations":[{"polygon":"geojson/ward_184.geojson","registered":"6838","code":"67FE14AF-5C2B-4D7D-B6CA-0D780004CF91","name":"BENANE","center":{"lat":0.581235,"lon":40.449889}},{"polygon":"geojson/ward_185.geojson","registered":"2526","code":"75D68379-CBC0-41BE-8F2B-22970B401B5A","name":"BURDER","center":{"lat":1.291638,"lon":40.487568}},{"polygon":"geojson/ward_186.geojson","registered":"2525","code":"908A2A87-2E09-498B-8D8C-2BF5D00905CB","name":"DADAJA BULLA","center":{"lat":0.571562,"lon":40.889796}},{"polygon":"geojson/ward_190.geojson","registered":"4356","code":"B33849FF-7B07-4CE3-96C3-16C8C4A209AA","name":"DIIF","center":{"lat":1.076164,"lon":40.831886}},{"polygon":"geojson/ward_187.geojson","registered":"6324","code":"F06313B0-77FC-41E1-9881-596795D5F680","name":"HABASSWEIN","center":{"lat":0.763224,"lon":39.810583}},{"polygon":"geojson/ward_189.geojson","registered":"3525","code":"809A719C-2E25-4844-B8C5-C957EA3158BA","name":"IBRAHIM URE","center":{"lat":1.571842,"lon":40.523116}},{"polygon":"geojson/ward_188.geojson","registered":"4345","code":"B7DBEA85-F828-4CCA-B7AB-50A5E1062DAE","name":"LAGBOGHOL SOUTH","center":{"lat":1.196077,"lon":40.025065}}]}}