{"polygon":"geojson/constituency_67.geojson","registered":"44239","code":"1DC58577-7D2A-450B-9F47-1413F928FEB8","name":"MWINGI NORTH","center":{"lat":-0.461391,"lon":38.299293},"status":"SUCCESS","region":{"location_type":"ward","locations":[{"polygon":"geojson/ward_332.geojson","registered":"13123","code":"C83DA1A1-FF97-470B-A408-73D72410B05E","name":"KYUSO","center":{"lat":-0.540152,"lon":38.208153}},{"polygon":"geojson/ward_333.geojson","registered":"9843","code":"61B42C89-9EB1-4908-BFEF-94DA0519F43F","name":"MUMONI","center":{"lat":-0.59235,"lon":38.001086}},{"polygon":"geojson/ward_331.geojson","registered":"5357","code":"B1074AF3-14A9-44C5-847E-2330B949BA7D","name":"NGOMENI","center":{"lat":-0.564434,"lon":38.523345}},{"polygon":"geojson/ward_335.geojson","registered":"4414","code":"E7D702B7-E97E-4557-BD93-D9EA990D5F5D","name":"THARAKA","center":{"lat":-0.365075,"lon":38.056068}},{"polygon":"geojson/ward_334.geojson","registered":"11492","code":"B698D590-8B69-4042-9A5C-63403484D6BC","name":"TSEIKURU","center":{"lat":-0.257248,"lon":38.342945}}]}}