{"polygon":"geojson/constituency_25.geojson","registered":"29672","code":"1FB5C956-EA20-4BCB-BECF-86BB560007DF","name":"MWATATE","center":{"lat":-3.719163,"lon":38.338262},"status":"SUCCESS","region":{"location_type":"ward","locations":[{"polygon":"geojson/ward_122.geojson","registered":"7085","code":"AF56DF58-8AFB-479F-96A3-F8BEB8644C89","name":"BURA","center":{"lat":-3.58071,"lon":38.220551}},{"polygon":"geojson/ward_123.geojson","registered":"5650","code":"214FAF7F-CED8-43DA-A832-FB82A70B553B","name":"CHAWIA","center":{"lat":-3.857183,"lon":38.363407}},{"polygon":"geojson/ward_121.geojson","registered":"6204","code":"314DCC17-61B9-402B-9598-FBDF4B9A04E3","name":"MWATATE","center":{"lat":-3.586213,"lon":38.461283}},{"polygon":"geojson/ward_120.geojson","registered":"4928","code":"F51A0566-934B-404D-8A16-610653659110","name":"RONG'E","center":{"lat":-3.417271,"lon":38.443356}},{"polygon":"geojson/ward_124.geojson","registered":"5797","code":"7678BFE1-DF00-4707-A6FF-0AA6B9B0C4BE","name":"WUSI/KISHAMBA","center":{"lat":-3.439945,"lon":38.364682}}]}}