{"polygon":"geojson/constituency_36.geojson","registered":"23200","code":"225D5B79-F03E-4E59-AE4B-1B3C8E86D52E","name":"WAJIR WEST","center":{"lat":1.659871,"lon":39.530075},"status":"SUCCESS","region":{"location_type":"ward","locations":[{"polygon":"geojson/ward_178.geojson","registered":"3082","code":"D744AA50-E802-4728-8613-0B7F12A2FFAA","name":"ADAMASAJIDE","center":{"lat":1.281982,"lon":39.455326}},{"polygon":"geojson/ward_176.geojson","registered":"5387","code":"C1A4FEDD-27D1-423D-B830-96B878CB9C0E","name":"ARBAJAHAN","center":{"lat":2.046277,"lon":39.421421}},{"polygon":"geojson/ward_179.geojson","registered":"8772","code":"D550B310-8F32-4922-9C47-73A132B52BCD","name":"GANYURE/WAGALLA","center":{"lat":1.642295,"lon":39.788806}},{"polygon":"geojson/ward_177.geojson","registered":"5956","code":"5B085933-B877-4EDA-BB88-1BDC38EDA50F","name":"HADADO/ATHIBOHOL","center":{"lat":1.616145,"lon":39.490736}}]}}