{"polygon":"geojson/constituency_93.geojson","registered":"41725","code":"228FA47C-10A3-4E0B-BB82-0D050BBF5A79","name":"NDARAGWA","center":{"lat":-0.089288,"lon":36.529088},"status":"SUCCESS","region":{"location_type":"ward","locations":[{"polygon":"geojson/ward_464.geojson","registered":"13297","code":"F1817D24-0F34-4294-897D-4A062F270530","name":"CENTRAL","center":{"lat":-0.062975,"lon":36.555048}},{"polygon":"geojson/ward_463.geojson","registered":"8864","code":"E0087CDE-F0B0-4299-B485-FE57166625FD","name":"KIRIITA","center":{"lat":0.009164,"lon":36.440372}},{"polygon":"geojson/ward_462.geojson","registered":"9931","code":"0D99136E-17DE-4C21-B921-994204404F02","name":"LESHAU/PONDO","center":{"lat":0.063835,"lon":36.484884}},{"polygon":"geojson/ward_465.geojson","registered":"9592","code":"5F1C4768-AA1D-4DEC-95D7-34B5FA1DB936","name":"SHAMATA","center":{"lat":-0.189266,"lon":36.552451}}]}}