{"polygon":"geojson/constituency_163.geojson","registered":"83818","code":"2D8B44A7-9B1E-4335-A8B7-37F61DE41333","name":"LAIKIPIA WEST","center":{"lat":0.325806,"lon":36.484102},"status":"SUCCESS","region":{"location_type":"ward","locations":[{"polygon":"geojson/ward_813.geojson","registered":"11871","code":"DDFB88CA-23FA-4AC9-90BD-13F1E01DCE89","name":"GITHIGA","center":{"lat":0.432754,"lon":36.295665}},{"polygon":"geojson/ward_815.geojson","registered":"31333","code":"73FBBBE3-EED9-4309-929F-779453F2B48A","name":"IGWAMITI","center":{"lat":0.11688,"lon":36.332155}},{"polygon":"geojson/ward_814.geojson","registered":"18867","code":"3645664A-D20F-45BB-BAAA-69E6175317A2","name":"MARMANET","center":{"lat":0.274432,"lon":36.371596}},{"polygon":"geojson/ward_811.geojson","registered":"6917","code":"915A94C0-FA3A-4881-B0AC-B8B856C18875","name":"OL-MORAN","center":{"lat":0.578993,"lon":36.418533}},{"polygon":"geojson/ward_812.geojson","registered":"7892","code":"CF0A82EA-0C8F-4555-B93A-2A7159B8163B","name":"RUMURUTI TOWNSHIP","center":{"lat":0.303218,"lon":36.484484}},{"polygon":"geojson/ward_816.geojson","registered":"6855","code":"831B8481-1DDA-4FFF-BE42-5E329E568B81","name":"SALAMA","center":{"lat":0.242289,"lon":36.654591}}]}}