{"polygon":"geojson/constituency_81.geojson","registered":"79816","code":"3169E91F-6C96-4288-A525-3ADC4D973288","name":"MACHAKOS TOWN","center":{"lat":-1.586935,"lon":37.225445},"status":"SUCCESS","region":{"location_type":"ward","locations":[{"polygon":"geojson/ward_398.geojson","registered":"12164","code":"5F2F184F-6041-48D4-BB02-90EC4AB45B3E","name":"KALAMA","center":{"lat":-1.65928,"lon":37.127597}},{"polygon":"geojson/ward_404.geojson","registered":"7455","code":"D0D78E01-0B3C-4D03-B3B9-4D7641782585","name":"KOLA","center":{"lat":-1.669835,"lon":37.324203}},{"polygon":"geojson/ward_401.geojson","registered":"20008","code":"253A12AF-C588-4FD7-9870-60CE59C5BB8B","name":"MACHAKOS CENTRAL","center":{"lat":-1.507504,"lon":37.280813}},{"polygon":"geojson/ward_399.geojson","registered":"9116","code":"0B1727C2-591E-43E6-9EB9-9D7B894FAA90","name":"MUA","center":{"lat":-1.508993,"lon":37.203142}},{"polygon":"geojson/ward_402.geojson","registered":"9609","code":"80C7FD84-C2D9-4CA1-B32A-0131C1DCE28C","name":"MUMBUNI NORTH","center":{"lat":-1.481466,"lon":37.255201}},{"polygon":"geojson/ward_400.geojson","registered":"10504","code":"D9530502-9E61-459A-9A2F-760FF4B02867","name":"MUTITUNI","center":{"lat":-1.423756,"lon":37.250842}},{"polygon":"geojson/ward_403.geojson","registered":"10947","code":"20977F6B-B377-4AC2-BEE5-349AF43D333A","name":"MUVUTI/KIIMA-KIMWE","center":{"lat":-1.536937,"lon":37.291091}}]}}