{"polygon":"geojson/constituency_156.geojson","registered":"48148","code":"33D8A9A0-C641-4A6F-844A-CA743089CD2A","name":"MOSOP","center":{"lat":0.454411,"lon":35.02995},"status":"SUCCESS","region":{"location_type":"ward","locations":[{"polygon":"geojson/ward_774.geojson","registered":"6354","code":"E7C6DE5B-F253-4720-80D5-21CF4429EE25","name":"CHEPTERWAI","center":{"lat":0.533501,"lon":34.929642}},{"polygon":"geojson/ward_779.geojson","registered":"7202","code":"BFA0EE19-3D47-415C-98E4-1680091A9F40","name":"KABISAGA","center":{"lat":0.432684,"lon":35.126203}},{"polygon":"geojson/ward_777.geojson","registered":"7423","code":"16661D53-7411-44FA-A2F5-F97E633E0943","name":"KABIYET","center":{"lat":0.43705,"lon":35.066359}},{"polygon":"geojson/ward_775.geojson","registered":"7039","code":"199F1C1D-3E1F-4361-8B84-996AFADC71E4","name":"KIPKAREN","center":{"lat":0.514116,"lon":35.022786}},{"polygon":"geojson/ward_776.geojson","registered":"6619","code":"9206CB10-F50D-45CF-9131-4AD842076ABD","name":"KURGUNG/SURUNGAI","center":{"lat":0.457495,"lon":34.973098}},{"polygon":"geojson/ward_778.geojson","registered":"6882","code":"C0806EB1-0CA1-401A-A5E6-11A56A990269","name":"NDALAT","center":{"lat":0.515537,"lon":35.106647}},{"polygon":"geojson/ward_780.geojson","registered":"6582","code":"B746EBB0-FD94-4940-AD73-C9E2C830D4F3","name":"SANGALO/KEBULONIK","center":{"lat":0.361423,"lon":34.996159}}]}}