{"polygon":"geojson/constituency_189.geojson","registered":"35075","code":"37FED1B9-7703-4AC3-BC30-7114EB1BBA11","name":"KIPKELION WEST","center":{"lat":-0.148693,"lon":35.396737},"status":"SUCCESS","region":{"location_type":"ward","locations":[{"polygon":"geojson/ward_943.geojson","registered":"11699","code":"4933F086-9B1D-469C-842F-5ACD4479F45A","name":"CHILCHILA","center":{"lat":-0.160798,"lon":35.36583}},{"polygon":"geojson/ward_941.geojson","registered":"7555","code":"EE614616-0FD6-4850-942C-A4842EDD0220","name":"KAMASIAN","center":{"lat":-0.125061,"lon":35.431683}},{"polygon":"geojson/ward_942.geojson","registered":"10118","code":"E9550F41-94AB-4B33-B37E-EC76269CBF8D","name":"KIPKELION","center":{"lat":-0.15904,"lon":35.467841}},{"polygon":"geojson/ward_940.geojson","registered":"5686","code":"3FEE67E2-88DD-4DCC-83BE-4AB5C8069585","name":"KUNYAK","center":{"lat":-0.121761,"lon":35.294239}}]}}