{"polygon":"geojson/constituency_277.geojson","registered":"96084","code":"454AEEC7-C976-45AF-A8AA-4037F17D4183","name":"LANGATA","center":{"lat":-1.354486,"lon":36.804654},"status":"SUCCESS","region":{"location_type":"ward","locations":[{"polygon":"geojson/ward_1381.geojson","registered":"24843","code":"D66FFEE3-288C-45FE-B490-A20B1D09EA43","name":"KAREN","center":{"lat":-1.333249,"lon":36.726413}},{"polygon":"geojson/ward_1383.geojson","registered":"27067","code":"FAFFCF56-7364-495B-903B-208CC3EE6FBB","name":"MUGUMU-INI","center":{"lat":-1.369875,"lon":36.850249}},{"polygon":"geojson/ward_1382.geojson","registered":"10797","code":"97A227B8-7FA0-451A-8537-E3DF7BA627A2","name":"NAIROBI WEST","center":{"lat":-1.318399,"lon":36.814062}},{"polygon":"geojson/ward_1385.geojson","registered":"15215","code":"E07F928C-FD01-4A78-A22C-5B17E12A0296","name":"NYAYO HIGHRISE","center":{"lat":-1.311026,"lon":36.803897}},{"polygon":"geojson/ward_1384.geojson","registered":"18098","code":"E63B143E-4517-4B8F-BFDD-3C4521D1312E","name":"SOUTH C","center":{"lat":-1.3196,"lon":36.832268}}]}}