{"polygon":"geojson/constituency_160.geojson","registered":"26922","code":"589B25AF-CAFF-44CA-9BC9-C1547B40A9AC","name":"BARINGO SOUTH","center":{"lat":0.468455,"lon":36.063226},"status":"SUCCESS","region":{"location_type":"ward","locations":[{"polygon":"geojson/ward_799.geojson","registered":"4974","code":"FC59E062-000A-488A-8590-BF4566EC8ED6","name":"ILCHAMUS","center":{"lat":0.576707,"lon":36.056186}},{"polygon":"geojson/ward_798.geojson","registered":"10263","code":"3117A97F-AB3E-43DE-8C8E-F3EF05E70EAA","name":"MARIGAT","center":{"lat":0.446841,"lon":35.913458}},{"polygon":"geojson/ward_800.geojson","registered":"8896","code":"FDFAD697-7AD8-49DA-A65C-D9D5D854924C","name":"MOCHONGOI","center":{"lat":0.341937,"lon":36.146636}},{"polygon":"geojson/ward_801.geojson","registered":"2738","code":"56306616-48B7-4161-A486-34DEDF127DEF","name":"MUKUTANI","center":{"lat":0.546412,"lon":36.180403}}]}}