{"polygon":"geojson/constituency_146.geojson","registered":"50297","code":"5A1253C6-CCF0-44AA-BD10-B26A5C126077","name":"KESSES","center":{"lat":0.213948,"lon":35.394459},"status":"SUCCESS","region":{"location_type":"ward","locations":[{"polygon":"geojson/ward_728.geojson","registered":"9686","code":"5F8EB901-81DA-41C2-837B-B508D4FD13A4","name":"CHEPTIRET/KIPCHAMO","center":{"lat":0.3869,"lon":35.365812}},{"polygon":"geojson/ward_727.geojson","registered":"13300","code":"27D68871-835C-459C-8975-FED0B089542B","name":"RACECOURSE","center":{"lat":0.481688,"lon":35.284297}},{"polygon":"geojson/ward_730.geojson","registered":"13546","code":"90A0D618-BBA9-48F8-A765-89D903962DA4","name":"TARAKWA","center":{"lat":0.12788,"lon":35.439221}},{"polygon":"geojson/ward_729.geojson","registered":"13750","code":"BBC766A4-B3E4-4E59-9930-953E9DE2EEE2","name":"TULWET/CHUIYAT","center":{"lat":0.271771,"lon":35.327191}}]}}