{"polygon":"geojson/constituency_7.geojson","registered":"42382","code":"5B79663B-17D2-47FC-8FFD-E0DA84F6A2D6","name":"MSAMBWENI","center":{"lat":-4.435073,"lon":39.512627},"status":"SUCCESS","region":{"location_type":"ward","locations":[{"polygon":"geojson/ward_31.geojson","registered":"10848","code":"EB1BE4EE-1604-4DCC-AD86-9C3EB2A8F387","name":"GOMBATO BONGWE","center":{"lat":-4.283605,"lon":39.542581}},{"polygon":"geojson/ward_33.geojson","registered":"6689","code":"5E6BF402-F796-4604-99D4-CEFCF4371D24","name":"KINONDO","center":{"lat":-4.377295,"lon":39.493039}},{"polygon":"geojson/ward_34.geojson","registered":"12523","code":"67263F2D-509A-4B3C-908F-8AB9320D9155","name":"RAMISI","center":{"lat":-4.46049,"lon":39.412863}},{"polygon":"geojson/ward_32.geojson","registered":"12320","code":"168D7B64-47EB-4791-876E-7DC305C57FA7","name":"UKUNDA","center":{"lat":-4.312094,"lon":39.553798}}]}}