{"polygon":"geojson/constituency_267.geojson","registered":"58753","code":"611EBFFD-1D66-4AF2-9B43-4FBB223AC3AD","name":"NYARIBARI CHACHE","center":{"lat":-0.739093,"lon":34.822799},"status":"SUCCESS","region":{"location_type":"ward","locations":[{"polygon":"geojson/ward_1335.geojson","registered":"7013","code":"2B072047-5783-4C35-AE20-12CBD5BAE4EC","name":"BIRONGO","center":{"lat":-0.757852,"lon":34.879033}},{"polygon":"geojson/ward_1331.geojson","registered":"12496","code":"7229C43B-5DE6-4321-A793-35C60BD2E764","name":"BOBARACHO","center":{"lat":-0.703865,"lon":34.804565}},{"polygon":"geojson/ward_1336.geojson","registered":"8928","code":"1856BCC9-F6F4-468E-B7EA-2FCFBF10138B","name":"IBENO","center":{"lat":-0.773295,"lon":34.840401}},{"polygon":"geojson/ward_1333.geojson","registered":"6011","code":"6C5D3562-0398-4BF3-9D24-6773B518830A","name":"KEUMBU","center":{"lat":-0.733868,"lon":34.845872}},{"polygon":"geojson/ward_1334.geojson","registered":"5688","code":"AEED970C-A831-49E8-BBDC-75614F2147F7","name":"KIOGORO","center":{"lat":-0.736836,"lon":34.788204}},{"polygon":"geojson/ward_1332.geojson","registered":"18584","code":"10532C84-DE9F-4EBA-ADDB-0B933CF928A4","name":"KISII CENTRAL","center":{"lat":-0.692041,"lon":34.763437}}]}}