{"polygon":"geojson/constituency_4.geojson","registered":"79574","code":"628A6127-6770-4321-A65B-E07FE93AA527","name":"NYALI","center":{"lat":-4.030199,"lon":39.703432},"status":"SUCCESS","region":{"location_type":"ward","locations":[{"polygon":"geojson/ward_16.geojson","registered":"15981","code":"683B19E2-68C1-4A84-BBCE-062BCDFD88FD","name":"FRERE TOWN","center":{"lat":-4.026693,"lon":39.687571}},{"polygon":"geojson/ward_20.geojson","registered":"14288","code":"0DA126A4-E2D1-47A7-8122-16D8C25E0F8F","name":"KADZANDANI","center":{"lat":-4.011672,"lon":39.705207}},{"polygon":"geojson/ward_19.geojson","registered":"17675","code":"8287EFD8-3292-453F-AF77-08C60B8FAF93","name":"KONGOWEA","center":{"lat":-4.039917,"lon":39.689583}},{"polygon":"geojson/ward_18.geojson","registered":"16253","code":"58580FF1-20B5-4C8A-93D9-64D2E66C31E1","name":"MKOMANI","center":{"lat":-4.049616,"lon":39.696536}},{"polygon":"geojson/ward_17.geojson","registered":"15372","code":"CD457F5E-98CF-4651-8DCB-E4E56D98FBAF","name":"ZIWA LA NG'OMBE","center":{"lat":-4.025635,"lon":39.710257}}]}}