{"polygon":"geojson/constituency_191.geojson","registered":"63344","code":"645FC0B7-6451-4334-9B4F-B7E146E5BC12","name":"BURETI","center":{"lat":-0.562575,"lon":35.133333},"status":"SUCCESS","region":{"location_type":"ward","locations":[{"polygon":"geojson/ward_952.geojson","registered":"8649","code":"7F5BC38F-0027-4C54-B5FB-BF6718EC4864","name":"CHEBOIN","center":{"lat":-0.560634,"lon":35.127993}},{"polygon":"geojson/ward_953.geojson","registered":"10512","code":"5EDE70A6-7EEF-42C8-9F22-406FF93BA3BC","name":"CHEMOSOT","center":{"lat":-0.511032,"lon":35.170295}},{"polygon":"geojson/ward_955.geojson","registered":"9125","code":"CDF6FF99-155E-45B5-AF6F-9927EB8667DC","name":"CHEPLANGET","center":{"lat":-0.630694,"lon":35.113384}},{"polygon":"geojson/ward_956.geojson","registered":"8129","code":"682F84A9-8906-46CD-BCE3-CAA655F0F35A","name":"KAPKATET","center":{"lat":-0.616945,"lon":35.190018}},{"polygon":"geojson/ward_950.geojson","registered":"8472","code":"E6558742-6A76-4CB6-8AE6-CC5866E44440","name":"KISIARA","center":{"lat":-0.484569,"lon":35.109684}},{"polygon":"geojson/ward_954.geojson","registered":"10912","code":"0B49C67A-634C-4C8F-8429-362B86E9E9EB","name":"LITEIN","center":{"lat":-0.591388,"lon":35.156815}},{"polygon":"geojson/ward_951.geojson","registered":"7519","code":"A00B9CAF-9E63-471F-804D-76791F9DE6C4","name":"TEBESONIK","center":{"lat":-0.544417,"lon":35.081527}}]}}