{"polygon":"geojson/constituency_263.geojson","registered":"38870","code":"68DEB955-B52E-4BC6-AEF4-44E17B9579E3","name":"BOMACHOGE BORABU","center":{"lat":-0.910306,"lon":34.754751},"status":"SUCCESS","region":{"location_type":"ward","locations":[{"polygon":"geojson/ward_1313.geojson","registered":"12476","code":"FBF9DF25-EFBF-496E-935F-8E6606A94B52","name":"BOKIMONGE","center":{"lat":-0.906003,"lon":34.75136}},{"polygon":"geojson/ward_1311.geojson","registered":"8493","code":"506915CA-F53E-4A2F-87F3-549A7F465F2A","name":"BOMBABA BORABU","center":{"lat":-0.890862,"lon":34.777214}},{"polygon":"geojson/ward_1312.geojson","registered":"5837","code":"A1AA94D4-C4B5-4FA0-AB6B-654BD52E007B","name":"BOOCHI BORABU","center":{"lat":-0.907886,"lon":34.808329}},{"polygon":"geojson/ward_1314.geojson","registered":"12062","code":"84DEFB95-9E2B-4274-9CA5-DFCF9FD84F6A","name":"MAGENCHE","center":{"lat":-0.921218,"lon":34.714053}}]}}