{"polygon":"geojson/constituency_80.geojson","registered":"79996","code":"6B0706FF-4EFF-4685-AA8B-DD8C51891C8C","name":"MAVOKO","center":{"lat":-1.435794,"lon":37.058744},"status":"SUCCESS","region":{"location_type":"ward","locations":[{"polygon":"geojson/ward_394.geojson","registered":"29479","code":"21CD6521-BDBC-4E99-A0DD-7A144B872DE5","name":"ATHI RIVER","center":{"lat":-1.453933,"lon":36.947448}},{"polygon":"geojson/ward_395.geojson","registered":"9203","code":"72519CFB-31AC-4997-8CB3-A08DAA3B9110","name":"KINANIE","center":{"lat":-1.504198,"lon":37.068569}},{"polygon":"geojson/ward_396.geojson","registered":"12218","code":"81A5038E-BA86-46E6-B853-77144AD7A5DC","name":"MUTHWANI","center":{"lat":-1.363832,"lon":37.078373}},{"polygon":"geojson/ward_397.geojson","registered":"29094","code":"8BD9124C-61C8-4A17-888E-0C6A7E22CBEB","name":"SYOKIMAU/MULOLONGO","center":{"lat":-1.364339,"lon":36.935105}}]}}