{"polygon":"geojson/constituency_243.geojson","registered":"52917","code":"6E7B2D40-2EF4-4722-8D60-75DD24040DF8","name":"MUHORONI","center":{"lat":-0.105183,"lon":35.080538},"status":"SUCCESS","region":{"location_type":"ward","locations":[{"polygon":"geojson/ward_1214.geojson","registered":"11378","code":"D75450CA-FB44-442C-9DD6-5614EF5087BC","name":"CHEMELIL","center":{"lat":-0.069691,"lon":35.152636}},{"polygon":"geojson/ward_1213.geojson","registered":"11635","code":"668761A7-E8B2-4937-8C38-551C60CBA7BE","name":"MASOGO/NYANG'OMA","center":{"lat":-0.111696,"lon":35.04683}},{"polygon":"geojson/ward_1211.geojson","registered":"7195","code":"1EA2D97F-FFF8-46F2-9ABF-B81179D1800A","name":"MIWANI","center":{"lat":-0.045109,"lon":34.925275}},{"polygon":"geojson/ward_1215.geojson","registered":"13610","code":"5EAF373B-B064-42AB-82E6-6E954A75F277","name":"MUHORONI/KORU","center":{"lat":-0.171079,"lon":35.253127}},{"polygon":"geojson/ward_1212.geojson","registered":"9094","code":"1290A778-69AF-4842-9A95-DBDDD49C1E96","name":"OMBEYI","center":{"lat":-0.104543,"lon":34.925022}}]}}