{"polygon":"geojson/constituency_190.geojson","registered":"59812","code":"79FE4947-14B2-4C38-A937-A670E468FA3F","name":"AINAMOI","center":{"lat":-0.303028,"lon":35.276669},"status":"SUCCESS","region":{"location_type":"ward","locations":[{"polygon":"geojson/ward_945.geojson","registered":"6556","code":"97C16383-28FE-4C6A-B5CB-F31C9FB49A90","name":"AINAMOI","center":{"lat":-0.26719,"lon":35.282392}},{"polygon":"geojson/ward_946.geojson","registered":"13080","code":"3955A821-6110-4EEB-90D4-B4390A72B9EA","name":"KAPKUGERWET","center":{"lat":-0.335759,"lon":35.30377}},{"polygon":"geojson/ward_949.geojson","registered":"11518","code":"2EC3F03A-B8CD-442D-AE92-31021920A62F","name":"KAPSAOS","center":{"lat":-0.279713,"lon":35.346944}},{"polygon":"geojson/ward_944.geojson","registered":"11327","code":"F298602E-EB64-49EC-B2CC-189F79B754D3","name":"KAPSOIT","center":{"lat":-0.286273,"lon":35.215692}},{"polygon":"geojson/ward_947.geojson","registered":"12819","code":"AA9468D8-8760-4954-B69A-8B365C8D3E36","name":"KIPCHEBOR","center":{"lat":-0.371358,"lon":35.264967}},{"polygon":"geojson/ward_948.geojson","registered":"4501","code":"B8F6F14B-016D-4654-8416-21D67A2EE9A2","name":"KIPCHIMCHIM","center":{"lat":-0.322648,"lon":35.272298}}]}}