{"polygon":"geojson/constituency_58.geojson","registered":"51086","code":"7E161A37-0F2F-46C1-8B2F-D35EDC2D4E47","name":"CENTRAL IMENTI","center":{"lat":-0.040134,"lon":37.682817},"status":"SUCCESS","region":{"location_type":"ward","locations":[{"polygon":"geojson/ward_286.geojson","registered":"9542","code":"5D199C15-5D3A-4330-8952-31185DD32A87","name":"ABOTHUGUCHI CENTRAL","center":{"lat":-0.02371,"lon":37.739352}},{"polygon":"geojson/ward_287.geojson","registered":"16612","code":"2CA7A938-3042-439B-A401-B9CAB36032A8","name":"ABOTHUGUCHI WEST","center":{"lat":-0.069157,"lon":37.835524}},{"polygon":"geojson/ward_288.geojson","registered":"17646","code":"3A8EDEAD-7406-40F2-B12C-92FC167A83FC","name":"KIAGU","center":{"lat":0.049979,"lon":37.476752}},{"polygon":"geojson/ward_285.geojson","registered":"10748","code":"A45FB74D-2980-45A9-A515-A98CAEF50F6A","name":"MWANGANTHIA","center":{"lat":-0.02986,"lon":37.511801}}]}}