{"polygon":"geojson/constituency_227.geojson","registered":"31077","code":"89600264-B867-4817-B4A1-01587F5F85F3","name":"NAMBALE","center":{"lat":0.484942,"lon":34.313818},"status":"SUCCESS","region":{"location_type":"ward","locations":[{"polygon":"geojson/ward_1136.geojson","registered":"5825","code":"B9AC9F3E-B9AD-4DBA-8BF7-33A16B733D46","name":"BUKHAYO CENTRAL","center":{"lat":0.433939,"lon":34.301795}},{"polygon":"geojson/ward_1135.geojson","registered":"7514","code":"106B519F-9E96-441B-A8CC-306E807C1C9D","name":"BUKHAYO EAST","center":{"lat":0.489677,"lon":34.353555}},{"polygon":"geojson/ward_1134.geojson","registered":"6991","code":"C686BE5B-6715-4B4D-BCF1-E8C96A178A17","name":"BUKHAYO NORTH/WALTSI","center":{"lat":0.551857,"lon":34.346402}},{"polygon":"geojson/ward_1133.geojson","registered":"10696","code":"26F606AA-287B-44C9-BAAD-4E59B06EA38D","name":"NAMBALE TOWNSHIP","center":{"lat":0.469291,"lon":34.255324}}]}}