{"polygon":"geojson/constituency_134.geojson","registered":"18186","code":"8EB3ABBE-80EF-41C6-BB64-9F0334930A7E","name":"SAMBURU NORTH","center":{"lat":1.682815,"lon":36.832172},"status":"SUCCESS","region":{"location_type":"ward","locations":[{"polygon":"geojson/ward_670.geojson","registered":"2527","code":"32316171-5B00-4562-A1BA-5A6BB35D75D8","name":"ANGATA NANYOKIE","center":{"lat":1.310489,"lon":36.724061}},{"polygon":"geojson/ward_671.geojson","registered":"2598","code":"41612E46-3CDB-49C4-B200-75E2DEC8467E","name":"BAAWA","center":{"lat":1.121963,"lon":36.894417}},{"polygon":"geojson/ward_666.geojson","registered":"3522","code":"80BF12D9-3B1B-4823-87A1-8E509EC305F5","name":"EL-BARTA","center":{"lat":1.578105,"lon":36.873266}},{"polygon":"geojson/ward_667.geojson","registered":"2059","code":"3E3696F2-95FB-438D-90B7-0E5AFDA7928D","name":"NACHOLA","center":{"lat":1.685145,"lon":36.594567}},{"polygon":"geojson/ward_668.geojson","registered":"4030","code":"90A75412-C6AB-4CE5-A119-063913D8F82E","name":"NDOTO","center":{"lat":1.746067,"lon":37.121868}},{"polygon":"geojson/ward_669.geojson","registered":"3428","code":"790B7DC5-BA8E-47E0-966E-722E7E2E6C00","name":"NYIRO","center":{"lat":2.137554,"lon":36.777235}}]}}