{"polygon":"geojson/constituency_37.geojson","registered":"13159","code":"95693A9A-D3C5-4949-B608-D3B340D125F1","name":"ELDAS","center":{"lat":2.280838,"lon":39.456215},"status":"SUCCESS","region":{"location_type":"ward","locations":[{"polygon":"geojson/ward_181.geojson","registered":"3424","code":"203E36BD-3DE7-4974-9E20-FCCA369B1A3C","name":"DELLA","center":{"lat":2.417344,"lon":39.702113}},{"polygon":"geojson/ward_180.geojson","registered":"2927","code":"73E1553D-6856-4F17-A526-7E8EA5FE30D3","name":"ELDAS","center":{"lat":2.443059,"lon":39.514542}},{"polygon":"geojson/ward_183.geojson","registered":"5225","code":"E78C7AD8-A28D-469F-B9A5-F3306E346068","name":"ELNUR/TULA TULA","center":{"lat":2.055894,"lon":39.80451}},{"polygon":"geojson/ward_182.geojson","registered":"1583","code":"8361CD3A-3B80-4732-AFEA-D932EB67A88F","name":"LAKOLEY SOUTH/BASIR","center":{"lat":2.307852,"lon":39.194239}}]}}