{"polygon":"geojson/constituency_118.geojson","registered":"70257","code":"9658727E-23C0-4F40-A5B1-985B947A4E0C","name":"KIAMBAA","center":{"lat":-1.162697,"lon":36.760164},"status":"SUCCESS","region":{"location_type":"ward","locations":[{"polygon":"geojson/ward_586.geojson","registered":"7788","code":"0256C54B-9713-43F7-A8CA-C24F81668E07","name":"CIANDA","center":{"lat":-1.130702,"lon":36.76253}},{"polygon":"geojson/ward_587.geojson","registered":"16392","code":"8CE260FD-FBBC-4C76-8766-EF46A6BC0F79","name":"KARURI","center":{"lat":-1.166137,"lon":36.751258}},{"polygon":"geojson/ward_590.geojson","registered":"14553","code":"6AE33573-14BB-490C-A084-5051A32A55A8","name":"KIHARA","center":{"lat":-1.209873,"lon":36.765871}},{"polygon":"geojson/ward_589.geojson","registered":"12579","code":"698246E1-80E3-449F-AD0B-3D03D29053A4","name":"MUCHATHA","center":{"lat":-1.180161,"lon":36.77809}},{"polygon":"geojson/ward_588.geojson","registered":"18944","code":"7B388989-A42A-494A-A882-9DFF20DC16A1","name":"NDENDERU","center":{"lat":-1.191587,"lon":36.745361}}]}}