{"polygon":"geojson/constituency_152.geojson","registered":"50260","code":"9EFD244B-2B33-4C6C-AEA5-061AD7921637","name":"ALDAI","center":{"lat":0.048994,"lon":34.959025},"status":"SUCCESS","region":{"location_type":"ward","locations":[{"polygon":"geojson/ward_755.geojson","registered":"6743","code":"44BB1122-258C-41FE-B490-A5F9F8C92E2C","name":"KABWARENG","center":{"lat":0.114182,"lon":34.894848}},{"polygon":"geojson/ward_759.geojson","registered":"9468","code":"349317F1-CE84-4DB7-8BE4-D313FB4E59C0","name":"KAPTUMO-KABOI","center":{"lat":0.099636,"lon":35.062164}},{"polygon":"geojson/ward_757.geojson","registered":"10782","code":"D36D6470-F10A-4CE2-B34A-E3A218209F66","name":"KEMELOI-MARABA","center":{"lat":0.022056,"lon":34.889812}},{"polygon":"geojson/ward_758.geojson","registered":"9099","code":"240BC757-9ABD-49B1-B2A8-A02E1326870A","name":"KOBUJOI","center":{"lat":0.046169,"lon":34.96893}},{"polygon":"geojson/ward_760.geojson","registered":"7969","code":"CAE578F4-15D9-4BDD-831A-3EDEA33265AA","name":"KOYO-NDURIO","center":{"lat":0.02318,"lon":35.04509}},{"polygon":"geojson/ward_756.geojson","registered":"6142","code":"00880C36-7911-4963-9D74-61C39928D6BB","name":"TERIK","center":{"lat":0.022848,"lon":34.821285}}]}}