{"polygon":"geojson/constituency_251.geojson","registered":"37430","code":"9F4286F6-B276-474A-977B-1D9A62A53096","name":"MBITA","center":{"lat":-0.457118,"lon":34.175793},"status":"SUCCESS","region":{"location_type":"ward","locations":[{"polygon":"geojson/ward_1255.geojson","registered":"6184","code":"4ECAC001-892B-490F-9A74-BA74B1BCEF9C","name":"GEMBE","center":{"lat":-0.470255,"lon":34.319782}},{"polygon":"geojson/ward_1254.geojson","registered":"7835","code":"5C32D421-29F4-4F1A-97C2-CC98F548F542","name":"KASGUNGA","center":{"lat":-0.448118,"lon":34.23086}},{"polygon":"geojson/ward_1256.geojson","registered":"7779","code":"3C38B127-AD9A-4926-95EA-84E9564DF5C3","name":"LAMBWE","center":{"lat":-0.553127,"lon":34.357338}},{"polygon":"geojson/ward_1252.geojson","registered":"6986","code":"0D245D92-DB89-4B4D-95A8-614EB28ACAFF","name":"MFANGANO ISLAND","center":{"lat":-0.435475,"lon":34.00957}},{"polygon":"geojson/ward_1253.geojson","registered":"8640","code":"2FB4A1FA-ACCD-47AB-A27F-FAD6923F1992","name":"RUSINGA ISLAND","center":{"lat":-0.38428,"lon":34.15105}}]}}