{"polygon":"geojson/constituency_254.geojson","registered":"37808","code":"A23DDEA0-8A5A-4494-BD0C-412DCEA48894","name":"AWENDO","center":{"lat":-0.869636,"lon":34.541918},"status":"SUCCESS","region":{"location_type":"ward","locations":[{"polygon":"geojson/ward_1268.geojson","registered":"10098","code":"6B598D1D-9EA2-4B29-989D-CEBF5E1B8D37","name":"CENTRAL SAKWA","center":{"lat":-0.858261,"lon":34.533221}},{"polygon":"geojson/ward_1265.geojson","registered":"7920","code":"D6B1E873-A3C9-4281-9A8D-B596E4366C18","name":"NORTH SAKWA","center":{"lat":-0.784615,"lon":34.541793}},{"polygon":"geojson/ward_1266.geojson","registered":"12407","code":"2088A58A-3E56-474B-8A5E-FA20E37088AD","name":"SOUTH SAKWA","center":{"lat":-0.937371,"lon":34.569625}},{"polygon":"geojson/ward_1267.geojson","registered":"7352","code":"2037EFBA-A317-4B1A-A9F4-C6BE7E18F338","name":"WEST SAKWA","center":{"lat":-0.830832,"lon":34.501202}}]}}