{"polygon":"geojson/constituency_240.geojson","registered":"96042","code":"A8B08C73-F08E-4AE3-984D-EED3E4796D3B","name":"KISUMU CENTRAL","center":{"lat":-0.115682,"lon":34.741149},"status":"SUCCESS","region":{"location_type":"ward","locations":[{"polygon":"geojson/ward_1200.geojson","registered":"14272","code":"9765636A-5F60-4DF6-8882-FF9A33D1822E","name":"KONDELE","center":{"lat":-0.0839,"lon":34.779663}},{"polygon":"geojson/ward_1199.geojson","registered":"26030","code":"F8699095-5E70-471B-87E1-EC9A04B36438","name":"MARKET MILIMANI","center":{"lat":-0.123495,"lon":34.725161}},{"polygon":"geojson/ward_1197.geojson","registered":"11344","code":"1877C325-5AFC-46DC-A702-1C68C972521C","name":"MIGOSI","center":{"lat":-0.069772,"lon":34.777945}},{"polygon":"geojson/ward_1201.geojson","registered":"10988","code":"E18385FF-4FA0-45E6-9319-DDC32F2E8B0D","name":"NYALENDA B","center":{"lat":-0.142473,"lon":34.732296}},{"polygon":"geojson/ward_1196.geojson","registered":"19569","code":"69A3D78A-3F7E-4A8F-9F07-A705BE4E4B0A","name":"RAILWAYS","center":{"lat":-0.068981,"lon":34.756676}},{"polygon":"geojson/ward_1198.geojson","registered":"13835","code":"CC68431F-BD9F-40BA-A462-1D3CFD4CC798","name":"SHAURIMOYO KALOLENI","center":{"lat":-0.091383,"lon":34.767243}}]}}