{"polygon":"geojson/constituency_213.geojson","registered":"53953","code":"A9C8CB56-83DA-4CCE-A799-E37B51ABD3A9","name":"HAMISI","center":{"lat":0.098125,"lon":34.821339},"status":"SUCCESS","region":{"location_type":"ward","locations":[{"polygon":"geojson/ward_1064.geojson","registered":"8150","code":"65FE46E9-BC0D-4857-8A44-9E6B8507787F","name":"BANJA","center":{"lat":0.064103,"lon":34.821132}},{"polygon":"geojson/ward_1062.geojson","registered":"7153","code":"4D290EEB-60F8-4A5B-823E-40CF3D8865E7","name":"GISAMBAI","center":{"lat":0.059969,"lon":34.767779}},{"polygon":"geojson/ward_1067.geojson","registered":"7537","code":"AAADD4F0-195D-4F82-91FA-73F2799A6DEE","name":"JEPKOYAI","center":{"lat":0.026533,"lon":34.737315}},{"polygon":"geojson/ward_1065.geojson","registered":"5575","code":"EDBA44AE-B2E3-478D-9277-EF57A576E4DB","name":"MUHUDU","center":{"lat":0.17439,"lon":34.84908}},{"polygon":"geojson/ward_1063.geojson","registered":"10066","code":"5E229E95-46B3-4F1F-823C-86CEF25FE7FF","name":"SHAMAKHOKHO","center":{"lat":0.104713,"lon":34.834068}},{"polygon":"geojson/ward_1061.geojson","registered":"8239","code":"FB0B0E66-B88D-42E7-B382-31A56D9F0AAA","name":"SHIRU","center":{"lat":0.163719,"lon":34.880291}},{"polygon":"geojson/ward_1066.geojson","registered":"7233","code":"FC45C591-CC5A-4B7A-A7CE-51BBDD8D6FCA","name":"TAMBUA","center":{"lat":0.024883,"lon":34.777204}}]}}