{"polygon":"geojson/constituency_276.geojson","registered":"87255","code":"AAF028D0-6D0E-4740-B418-01861BD58081","name":"DAGORETTI SOUTH","center":{"lat":-1.282524,"lon":36.715569},"status":"SUCCESS","region":{"location_type":"ward","locations":[{"polygon":"geojson/ward_1376.geojson","registered":"9617","code":"E3C6E2AD-4C92-48E9-A169-FB5C0E04F7F6","name":"MUTU-INI","center":{"lat":-1.291623,"lon":36.698621}},{"polygon":"geojson/ward_1377.geojson","registered":"17073","code":"F836AE79-FD7B-40B5-848E-9B74625C4F77","name":"NGANDO","center":{"lat":-1.298297,"lon":36.744224}},{"polygon":"geojson/ward_1378.geojson","registered":"31141","code":"D98A3AB7-088D-4111-93F8-09F04C1F64DC","name":"RIRUTA","center":{"lat":-1.285974,"lon":36.734677}},{"polygon":"geojson/ward_1379.geojson","registered":"16178","code":"7D4D0F1D-BCA8-4E73-A5C0-C9F66AEC30DE","name":"UTHIRU/RUTHIMITU","center":{"lat":-1.268825,"lon":36.706263}},{"polygon":"geojson/ward_1380.geojson","registered":"13203","code":"9CAC2C72-E655-43D6-8FB3-A3CDB6D45C18","name":"WAITHAKA","center":{"lat":-1.284333,"lon":36.715385}}]}}