{"polygon":"geojson/constituency_40.geojson","registered":"13848","code":"B0B2FA29-FBAB-4582-8637-4D84EDF0093A","name":"BANISSA","center":{"lat":3.996367,"lon":40.507561},"status":"SUCCESS","region":{"location_type":"ward","locations":[{"polygon":"geojson/ward_196.geojson","registered":"2938","code":"96A2A4CC-6E29-4AC1-B473-598C8235ADFA","name":"BANISSA","center":{"lat":3.942303,"lon":40.37447}},{"polygon":"geojson/ward_197.geojson","registered":"2790","code":"B6103BD8-A67D-4C9F-93E4-0A79D15E3C0D","name":"DERKHALE","center":{"lat":3.844541,"lon":40.189786}},{"polygon":"geojson/ward_198.geojson","registered":"532","code":"5570AF42-6EEB-4E1F-8E94-E2318A4B69A1","name":"GUBA","center":{"lat":3.956656,"lon":40.589856}},{"polygon":"geojson/ward_200.geojson","registered":"3203","code":"A9357C84-DF8B-41A6-904C-555F37985782","name":"KILIWEHIRI","center":{"lat":3.971287,"lon":40.157358}},{"polygon":"geojson/ward_199.geojson","registered":"4383","code":"0D3E57DD-A567-440F-A9EF-69AFA9D5BA1D","name":"MALKAMARI","center":{"lat":4.128809,"lon":40.703042}}]}}