{"polygon":"geojson/constituency_179.geojson","registered":"59849","code":"B18C683D-04DF-48C1-9572-B1909E7A8009","name":"NAROK NORTH","center":{"lat":-0.815994,"lon":35.859101},"status":"SUCCESS","region":{"location_type":"ward","locations":[{"polygon":"geojson/ward_896.geojson","registered":"10541","code":"ECA1FCA4-8EC4-4805-9B55-22705123E61A","name":"MELILI","center":{"lat":-0.843528,"lon":36.042728}},{"polygon":"geojson/ward_893.geojson","registered":"20527","code":"B2BDF04A-470B-4A90-B358-687EE3E65726","name":"NAROK TOWN","center":{"lat":-1.118493,"lon":35.829227}},{"polygon":"geojson/ward_894.geojson","registered":"5659","code":"12E421A4-DB0C-4D1D-989F-CB658544818D","name":"NKARETA","center":{"lat":-0.944784,"lon":35.829454}},{"polygon":"geojson/ward_892.geojson","registered":"7263","code":"F4C236CE-EFEF-4712-A198-7826A63C772F","name":"OLOKURTO","center":{"lat":-0.679699,"lon":35.811969}},{"polygon":"geojson/ward_895.geojson","registered":"9694","code":"DDB44CC5-01AF-4D9A-8F52-252D609BAB66","name":"OLORROPIL","center":{"lat":-0.765025,"lon":35.959662}},{"polygon":"geojson/ward_891.geojson","registered":"6164","code":"673EE7AF-6292-4A1A-90C6-AEC1B311196B","name":"OLPUSIMORU","center":{"lat":-0.6143,"lon":35.691506}}]}}