{"polygon":"geojson/constituency_223.geojson","registered":"37716","code":"B21AC211-880E-4175-802C-06E22A602EAF","name":"KIMILILI","center":{"lat":0.785175,"lon":34.733495},"status":"SUCCESS","region":{"location_type":"ward","locations":[{"polygon":"geojson/ward_1114.geojson","registered":"9850","code":"7FE75F92-9269-4D32-BF3C-6E1B7E25BE6F","name":"KAMUKUYWA","center":{"lat":0.808417,"lon":34.787491}},{"polygon":"geojson/ward_1111.geojson","registered":"9023","code":"D56B3C09-7EF1-4A9D-A11B-33A2403D237E","name":"KIBINGEI","center":{"lat":0.782474,"lon":34.677889}},{"polygon":"geojson/ward_1112.geojson","registered":"12307","code":"1EBD2513-CED7-4F5B-A979-8BFB4C7607FC","name":"KIMILILI","center":{"lat":0.759766,"lon":34.728076}},{"polygon":"geojson/ward_1113.geojson","registered":"6496","code":"42F1B7D0-20E2-46E0-9F86-42750908A05A","name":"MAENI","center":{"lat":0.808101,"lon":34.747171}}]}}