{"polygon":"geojson/constituency_106.geojson","registered":"89041","code":"B26C7754-8B6A-404F-9F0B-A5171B15286B","name":"KIHARU","center":{"lat":-0.714644,"lon":37.088281},"status":"SUCCESS","region":{"location_type":"ward","locations":[{"polygon":"geojson/ward_527.geojson","registered":"14918","code":"E8874B3B-B2B6-4395-A523-41A07F1CBD68","name":"GATURI","center":{"lat":-0.656823,"lon":37.117621}},{"polygon":"geojson/ward_524.geojson","registered":"14328","code":"17244B6B-7F8F-40C6-998F-9DD74CEE229B","name":"MBIRI","center":{"lat":-0.728173,"lon":37.188494}},{"polygon":"geojson/ward_523.geojson","registered":"14529","code":"57B0F6FA-DB30-411F-9E82-5E135B3CFA82","name":"MUGOIRI","center":{"lat":-0.751969,"lon":37.032837}},{"polygon":"geojson/ward_526.geojson","registered":"14534","code":"84B0EDCC-509E-4230-A911-2F8A602FD4A9","name":"MURARANDIA","center":{"lat":-0.726904,"lon":36.924485}},{"polygon":"geojson/ward_525.geojson","registered":"17311","code":"2222E3EA-AB93-4742-8272-19F1B4E3825D","name":"TOWNSHIP","center":{"lat":-0.718353,"lon":37.150877}},{"polygon":"geojson/ward_522.geojson","registered":"13419","code":"5521AC39-4351-46B6-A91A-5BE6F0047DF9","name":"WANGU","center":{"lat":-0.712388,"lon":37.024809}}]}}