{"polygon":"geojson/constituency_260.geojson","registered":"25841","code":"BDF7735E-3332-4F3F-8CE8-755AA92FA00B","name":"KURIA EAST","center":{"lat":-1.274629,"lon":34.63659},"status":"SUCCESS","region":{"location_type":"ward","locations":[{"polygon":"geojson/ward_1296.geojson","registered":"4623","code":"93183DA0-3AE7-4627-A18A-8805628CD5E3","name":"GOKEHARAKA/GETAMBWEGA","center":{"lat":-1.253889,"lon":34.561966}},{"polygon":"geojson/ward_1298.geojson","registered":"3610","code":"4AF242B0-D3BA-46F0-B4F7-0492930E5CB3","name":"NTIMARU EAST","center":{"lat":-1.306427,"lon":34.697492}},{"polygon":"geojson/ward_1297.geojson","registered":"5679","code":"454C14A5-60B6-4A11-897B-742746CD2E33","name":"NTIMARU WEST","center":{"lat":-1.339343,"lon":34.685631}},{"polygon":"geojson/ward_1299.geojson","registered":"5220","code":"EC0DDED1-204C-44AA-8926-764EB8D4AB13","name":"NYABASI EAST","center":{"lat":-1.257085,"lon":34.666224}},{"polygon":"geojson/ward_1300.geojson","registered":"6687","code":"C4CF469C-7FC5-4C2D-BE73-B520F3EB52C3","name":"NYABASI WEST","center":{"lat":-1.252889,"lon":34.627617}}]}}