{"polygon":"geojson/constituency_238.geojson","registered":"52430","code":"BF36E5FE-0645-4D08-A67B-1FA2903DEA13","name":"KISUMU EAST","center":{"lat":-0.106159,"lon":34.793786},"status":"SUCCESS","region":{"location_type":"ward","locations":[{"polygon":"geojson/ward_1186.geojson","registered":"16634","code":"96D7D848-67E3-44C2-B573-31B3A8BDEF69","name":"KAJULU","center":{"lat":-0.025538,"lon":34.79142}},{"polygon":"geojson/ward_1190.geojson","registered":"12366","code":"C913BA5A-FE03-4CD4-A3B5-6595F5EE7303","name":"KOLWA CENTRAL","center":{"lat":-0.126029,"lon":34.77382}},{"polygon":"geojson/ward_1187.geojson","registered":"8715","code":"62D4D8D2-7B87-4D98-8F67-8AFB6804EB00","name":"KOLWA EAST","center":{"lat":-0.124745,"lon":34.808883}},{"polygon":"geojson/ward_1188.geojson","registered":"7647","code":"48D26BA6-7CA3-4ABC-A382-25A1FE71ED1F","name":"MANYATTA 'B'","center":{"lat":-0.085293,"lon":34.784513}},{"polygon":"geojson/ward_1189.geojson","registered":"7068","code":"32F22EA0-D320-45C2-A382-8A5C4FDB1301","name":"NYALENDA 'A'","center":{"lat":-0.110778,"lon":34.772652}}]}}