{"polygon":"geojson/constituency_198.geojson","registered":"56059","code":"BFD2992B-553A-4E7F-BDF0-664C4153FF97","name":"KONOIN","center":{"lat":-0.54169,"lon":35.373481},"status":"SUCCESS","region":{"location_type":"ward","locations":[{"polygon":"geojson/ward_989.geojson","registered":"12524","code":"F184CB40-12BC-43B0-B3C9-81E8689DE25F","name":"BOITO","center":{"lat":-0.529139,"lon":35.338263}},{"polygon":"geojson/ward_986.geojson","registered":"10003","code":"A12287E1-F427-43D0-84CF-67A8D4CE3E44","name":"CHEPCHABAS","center":{"lat":-0.469331,"lon":35.254268}},{"polygon":"geojson/ward_990.geojson","registered":"12746","code":"E82C9CC2-3312-43CE-B752-346C15588DA5","name":"EMBOMOS","center":{"lat":-0.561131,"lon":35.445095}},{"polygon":"geojson/ward_987.geojson","registered":"8843","code":"5F27CD40-3B90-4696-AE1E-AC09F7B0512A","name":"KIMULOT","center":{"lat":-0.493084,"lon":35.330811}},{"polygon":"geojson/ward_988.geojson","registered":"11917","code":"4EECA11D-4567-4D27-B1A8-980CED40F452","name":"MOGOGOSIEK","center":{"lat":-0.61745,"lon":35.286166}}]}}