{"polygon":"geojson/constituency_3.geojson","registered":"79839","code":"C201CC94-2199-4921-90F4-4CE62FF33E24","name":"KISAUNI","center":{"lat":-3.971323,"lon":39.68524},"status":"SUCCESS","region":{"location_type":"ward","locations":[{"polygon":"geojson/ward_11.geojson","registered":"8663","code":"6190A5CF-4F21-41C0-93E9-0D3048396017","name":"BAMBURI","center":{"lat":-3.970093,"lon":39.705848}},{"polygon":"geojson/ward_10.geojson","registered":"12636","code":"42332DE3-CAED-4475-B36A-48745F188B03","name":"JUNDA","center":{"lat":-4.007598,"lon":39.674147}},{"polygon":"geojson/ward_14.geojson","registered":"9022","code":"811680AC-E259-46F5-99DF-DE18838BFEFE","name":"MAGOGONI","center":{"lat":-4.011658,"lon":39.687455}},{"polygon":"geojson/ward_9.geojson","registered":"15168","code":"36F962F8-C33B-48DB-8E69-51FB44AD5016","name":"MJAMBERE","center":{"lat":-4.026685,"lon":39.680844}},{"polygon":"geojson/ward_13.geojson","registered":"12195","code":"711DCEC4-E38C-4BDE-9609-239BA0F93D71","name":"MTOPANGA","center":{"lat":-3.993437,"lon":39.689187}},{"polygon":"geojson/ward_12.geojson","registered":"3977","code":"D415171C-9A22-42A3-A577-3548DD98BB42","name":"MWAKIRUNGE","center":{"lat":-3.953824,"lon":39.665712}},{"polygon":"geojson/ward_15.geojson","registered":"18173","code":"D5AA197F-6DE7-4080-B3BC-88CC58A6EF09","name":"SHANZU","center":{"lat":-3.978032,"lon":39.730606}}]}}