{"polygon":"geojson/constituency_33.geojson","registered":"15697","code":"C224D8D2-6C18-4E3D-A46E-6C923841EBBF","name":"WAJIR NORTH","center":{"lat":2.970742,"lon":39.646124},"status":"SUCCESS","region":{"location_type":"ward","locations":[{"polygon":"geojson/ward_165.geojson","registered":"2878","code":"3F25F2A8-FB4C-4D74-AC10-642689388CE6","name":"BATALU","center":{"lat":2.826443,"lon":39.964409}},{"polygon":"geojson/ward_162.geojson","registered":"2721","code":"CB60C79A-FDB9-43B3-8FBE-A93B3D361DB9","name":"BUTE","center":{"lat":3.294948,"lon":39.445137}},{"polygon":"geojson/ward_166.geojson","registered":"2265","code":"8BE060D6-630B-4B42-933F-08A1B77CC111","name":"DANABA","center":{"lat":3.123338,"lon":39.793131}},{"polygon":"geojson/ward_167.geojson","registered":"2048","code":"95DB947C-C993-4295-BC8B-E45687820B1C","name":"GODOMA","center":{"lat":3.29868,"lon":39.367521}},{"polygon":"geojson/ward_161.geojson","registered":"1634","code":"B8C5447C-7E31-4A87-BF7A-FCD7113E5A00","name":"GURAR","center":{"lat":3.388754,"lon":39.648528}},{"polygon":"geojson/ward_163.geojson","registered":"2663","code":"C1EB8401-B723-4088-87D9-E58BCA1A7B6A","name":"KORONDILE","center":{"lat":2.707085,"lon":39.156323}},{"polygon":"geojson/ward_164.geojson","registered":"1485","code":"39E9C30E-4C5E-4211-8B3B-379ABD0C68F0","name":"MALKAGUFU","center":{"lat":2.773982,"lon":39.472726}}]}}