{"polygon":"geojson/constituency_122.geojson","registered":"59121","code":"C4C19FF7-1159-49EB-8D6B-E18312FC5D45","name":"LARI","center":{"lat":-0.944371,"lon":36.666889},"status":"SUCCESS","region":{"location_type":"ward","locations":[{"polygon":"geojson/ward_609.geojson","registered":"8952","code":"5F5950C5-FCF0-48FA-9E6E-8E5CD74271CF","name":"KAMBURU","center":{"lat":-1.023125,"lon":36.742395}},{"polygon":"geojson/ward_607.geojson","registered":"13927","code":"C178D18F-5569-44A2-B5B3-45C2538C3AFF","name":"KIJABE","center":{"lat":-0.95766,"lon":36.645408}},{"polygon":"geojson/ward_606.geojson","registered":"11226","code":"325562CD-F196-412A-A0DF-F335C2E49E59","name":"KINALE","center":{"lat":-0.871617,"lon":36.655181}},{"polygon":"geojson/ward_610.geojson","registered":"13878","code":"DFA0B68B-6B3D-40ED-A3D3-A5174F2EF024","name":"LARI/KIRENGA","center":{"lat":-1.024981,"lon":36.637573}},{"polygon":"geojson/ward_608.geojson","registered":"11135","code":"C15D590C-6745-4DA8-8F2C-39D73A327435","name":"NYANDUMA","center":{"lat":-0.985572,"lon":36.735015}}]}}