{"polygon":"geojson/constituency_288.geojson","registered":"96190","code":"C7E91967-BA33-4281-A10B-96655E8E95B9","name":"KAMUKUNJI","center":{"lat":-1.275406,"lon":36.858819},"status":"SUCCESS","region":{"location_type":"ward","locations":[{"polygon":"geojson/ward_1437.geojson","registered":"9864","code":"40B6BAC9-9719-4A33-B579-EE973A363FCF","name":"AIRBASE","center":{"lat":-1.27005,"lon":36.862003}},{"polygon":"geojson/ward_1438.geojson","registered":"9349","code":"A9AC510E-A44D-4639-810A-01A94D566E30","name":"CALIFORNIA","center":{"lat":-1.282342,"lon":36.848486}},{"polygon":"geojson/ward_1435.geojson","registered":"24165","code":"ACB6CC86-A403-4964-B10B-9F19EEA36238","name":"EASTLEIGH NORTH","center":{"lat":-1.270849,"lon":36.846953}},{"polygon":"geojson/ward_1436.geojson","registered":"20399","code":"C3E4CC96-2C20-4D7C-88B5-C55C44DEFE9D","name":"EASTLEIGH SOUTH","center":{"lat":-1.280527,"lon":36.859495}},{"polygon":"geojson/ward_1434.geojson","registered":"32392","code":"294A94C0-B48A-41BD-805D-4A965A62DCBD","name":"PUMWANI","center":{"lat":-1.285873,"lon":36.843985}}]}}