{"polygon":"geojson/constituency_210.geojson","registered":"37592","code":"C96A21BE-6BB7-460A-A000-828F3168022A","name":"IKOLOMANI","center":{"lat":0.192293,"lon":34.70886},"status":"SUCCESS","region":{"location_type":"ward","locations":[{"polygon":"geojson/ward_1050.geojson","registered":"11416","code":"11FE0FF3-4C98-4CCA-BD59-ADDABE3EA9F4","name":"IDAKHO CENTRAL","center":{"lat":0.197259,"lon":34.687998}},{"polygon":"geojson/ward_1048.geojson","registered":"9819","code":"042793BE-FBAB-4C90-B393-ABF2EB4A6B40","name":"IDAKHO EAST","center":{"lat":0.173643,"lon":34.761918}},{"polygon":"geojson/ward_1049.geojson","registered":"8924","code":"70DB55F7-2F4F-4401-9F55-09473996D857","name":"IDAKHO NORTH","center":{"lat":0.234027,"lon":34.677778}},{"polygon":"geojson/ward_1047.geojson","registered":"7425","code":"51518D4D-DEFD-434D-A953-5D1B04F04D8A","name":"IDAKHO SOUTH","center":{"lat":0.157727,"lon":34.702644}}]}}