{"polygon":"geojson/constituency_197.geojson","registered":"46426","code":"CBCBDEAB-24EB-495F-AC70-60764548AFBE","name":"BOMET CENTRAL","center":{"lat":-0.721573,"lon":35.314474},"status":"SUCCESS","region":{"location_type":"ward","locations":[{"polygon":"geojson/ward_984.geojson","registered":"12223","code":"D03BAC79-0C42-4B07-9806-62C90548940B","name":"CHESOEN","center":{"lat":-0.686898,"lon":35.287833}},{"polygon":"geojson/ward_985.geojson","registered":"7324","code":"B91EE504-075B-406D-B734-43C364A94337","name":"MUTARAKWA","center":{"lat":-0.760262,"lon":35.260605}},{"polygon":"geojson/ward_982.geojson","registered":"8022","code":"FD397277-00F9-4973-88CC-8C23705FE1FE","name":"NDARAWETA","center":{"lat":-0.681688,"lon":35.379138}},{"polygon":"geojson/ward_981.geojson","registered":"10771","code":"CCC68DC6-6A73-48D2-BE9F-4A76F09945F3","name":"SILIBWET TOWNSHIP","center":{"lat":-0.741015,"lon":35.349266}},{"polygon":"geojson/ward_983.geojson","registered":"8070","code":"5329048A-8BF4-496C-BCA9-1DADEF238A52","name":"SINGORWET","center":{"lat":-0.712021,"lon":35.338906}}]}}