{"polygon":"geojson/constituency_272.geojson","registered":"42172","code":"CBD03880-7E9A-49F9-84E6-714A4E495C06","name":"NORTH MUGIRANGO","center":{"lat":-0.501335,"lon":34.992797},"status":"SUCCESS","region":{"location_type":"ward","locations":[{"polygon":"geojson/ward_1359.geojson","registered":"9691","code":"FFB0B0C5-9BF0-4A48-80F0-4C50AC4F0697","name":"BOKEIRA","center":{"lat":-0.447629,"lon":34.988138}},{"polygon":"geojson/ward_1358.geojson","registered":"5986","code":"ABFEEA0E-0C00-452C-A72E-34DD65ED5FDD","name":"BOMWAGAMO","center":{"lat":-0.505098,"lon":34.949096}},{"polygon":"geojson/ward_1361.geojson","registered":"9777","code":"A4CAB4F6-2255-4E01-9654-AFCDD3259E6E","name":"EKERENYO","center":{"lat":-0.522737,"lon":35.026214}},{"polygon":"geojson/ward_1357.geojson","registered":"9186","code":"1A70A992-A2C3-447A-BA7B-184AEE01E427","name":"ITIBO","center":{"lat":-0.536225,"lon":34.997473}},{"polygon":"geojson/ward_1360.geojson","registered":"7483","code":"5AC6E097-B5D3-447B-88FC-E772E903472E","name":"MAGWAGWA","center":{"lat":-0.46836,"lon":35.020965}}]}}