{"polygon":"geojson/constituency_8.geojson","registered":"34437","code":"CCA3424B-9657-4867-8070-4DD6BC0E1933","name":"LUNGALUNGA","center":{"lat":-4.46147,"lon":39.109774},"status":"SUCCESS","region":{"location_type":"ward","locations":[{"polygon":"geojson/ward_36.geojson","registered":"8104","code":"9873EE01-6CDA-470F-9F52-044335E2B055","name":"DZOMBO","center":{"lat":-4.451695,"lon":39.219174}},{"polygon":"geojson/ward_37.geojson","registered":"6524","code":"44054BA3-5A41-46D1-99FA-F97E3D9954BC","name":"MWERENI","center":{"lat":-4.352527,"lon":38.959941}},{"polygon":"geojson/ward_35.geojson","registered":"10789","code":"5DCF1977-E972-4B41-934B-578B6CB3102D","name":"PONGWE/KIKONENI","center":{"lat":-4.532909,"lon":39.327624}},{"polygon":"geojson/ward_38.geojson","registered":"9018","code":"1ED91645-7C3D-4B6F-853F-F0130FBD28AE","name":"VANGA","center":{"lat":-4.56321,"lon":39.136686}}]}}