{"polygon":"geojson/constituency_244.geojson","registered":"48112","code":"CDB2118E-7944-4F67-B7A3-A4BEEF904773","name":"NYAKACH","center":{"lat":-0.321534,"lon":34.906165},"status":"SUCCESS","region":{"location_type":"ward","locations":[{"polygon":"geojson/ward_1218.geojson","registered":"8222","code":"2869E9B7-392C-4728-B325-38C7AD57F4B1","name":"CENTRAL NYAKACH","center":{"lat":-0.310445,"lon":34.9161}},{"polygon":"geojson/ward_1217.geojson","registered":"13194","code":"87A5C25A-0477-46C8-B375-AFF2FF631729","name":"NORTH NYAKACH","center":{"lat":-0.273269,"lon":34.966254}},{"polygon":"geojson/ward_1220.geojson","registered":"11212","code":"55A25CE8-3677-4064-96EC-6F650D8BE173","name":"SOUTH EAST NYAKACH","center":{"lat":-0.365169,"lon":34.974202}},{"polygon":"geojson/ward_1216.geojson","registered":"6174","code":"76ED48F1-46B2-4409-8BAD-63A4A238E08F","name":"SOUTH WEST NYAKACH","center":{"lat":-0.37674,"lon":34.910834}},{"polygon":"geojson/ward_1219.geojson","registered":"9300","code":"630EF613-E9DE-48EE-80BF-89980C6231FD","name":"WEST NYAKACH","center":{"lat":-0.315152,"lon":34.81339}}]}}