{"polygon":"geojson/constituency_199.geojson","registered":"57306","code":"CFB0877C-7833-4CA7-AEBD-5C3A2B19D994","name":"LUGARI","center":{"lat":0.645995,"lon":34.91525},"status":"SUCCESS","region":{"location_type":"ward","locations":[{"polygon":"geojson/ward_994.geojson","registered":"7997","code":"EE4604A2-4A46-4FD1-8E15-860F43C560D5","name":"CHEKALINI","center":{"lat":0.630392,"lon":34.90315}},{"polygon":"geojson/ward_995.geojson","registered":"9673","code":"CE038BB0-64D7-457F-8899-405E2AAA5808","name":"CHEVAYWA","center":{"lat":0.531765,"lon":34.757125}},{"polygon":"geojson/ward_992.geojson","registered":"10385","code":"27FCEDE7-D07D-46D7-8014-D38E0DB4450A","name":"LUGARI","center":{"lat":0.680851,"lon":34.922813}},{"polygon":"geojson/ward_993.geojson","registered":"11588","code":"6EF2E245-F2CF-4B87-9632-01A33F54027B","name":"LUMAKANDA","center":{"lat":0.651246,"lon":34.989778}},{"polygon":"geojson/ward_996.geojson","registered":"8977","code":"842AD845-7A5D-4584-97C3-8281B1B64942","name":"LWANDETI","center":{"lat":0.612584,"lon":34.844608}},{"polygon":"geojson/ward_991.geojson","registered":"8670","code":"27AC8824-FE78-4371-BC56-5C0E55DA2125","name":"MAUTUMA","center":{"lat":0.726014,"lon":35.003885}}]}}