{"polygon":"geojson/constituency_92.geojson","registered":"39570","code":"D08AA109-8C04-4DCE-B765-07AD379F01DF","name":"OL JOROK","center":{"lat":-0.090737,"lon":36.333187},"status":"SUCCESS","region":{"location_type":"ward","locations":[{"polygon":"geojson/ward_461.geojson","registered":"8752","code":"69853F0C-44A5-490D-9FE5-08925FB610E0","name":"CHARAGITA","center":{"lat":-0.131405,"lon":36.287353}},{"polygon":"geojson/ward_458.geojson","registered":"8650","code":"2C034CBF-E120-4353-8EF0-766651410B5B","name":"GATHANJI","center":{"lat":-0.035937,"lon":36.300217}},{"polygon":"geojson/ward_459.geojson","registered":"9774","code":"F853A4F8-B39C-4A8A-A4D7-52AB8E12423C","name":"GATIMU","center":{"lat":-0.015294,"lon":36.377753}},{"polygon":"geojson/ward_460.geojson","registered":"12354","code":"C74F2607-2A48-43B3-80B6-A36346A2B35A","name":"WERU","center":{"lat":-0.113414,"lon":36.393943}}]}}