{"polygon":"geojson/constituency_53.geojson","registered":"44231","code":"E61AFB85-993F-4509-88FE-89857DC3DE1A","name":"IGEMBE NORTH","center":{"lat":0.466679,"lon":37.98788},"status":"SUCCESS","region":{"location_type":"ward","locations":[{"polygon":"geojson/ward_265.geojson","registered":"11531","code":"D57981EE-13DF-43F6-98A4-30E0BEC0998A","name":"AMWATHI","center":{"lat":0.499426,"lon":38.048628}},{"polygon":"geojson/ward_261.geojson","registered":"10335","code":"C8E7E062-A90B-4E9E-9F64-B1C65F2ED0ED","name":"ANTUAMBUI","center":{"lat":0.46771,"lon":37.88601}},{"polygon":"geojson/ward_263.geojson","registered":"7925","code":"E49DEAD9-EF5E-4688-BE8E-D92E8DC57921","name":"ANTUBETWE KIONGO","center":{"lat":0.345658,"lon":38.067009}},{"polygon":"geojson/ward_264.geojson","registered":"7675","code":"BAFFC54E-B5E0-454D-96E2-5D168155011A","name":"NAATHU","center":{"lat":0.498428,"lon":37.947499}},{"polygon":"geojson/ward_262.geojson","registered":"6765","code":"480AD94B-2C16-4806-8E68-856419A9F864","name":"NTUNENE","center":{"lat":0.397481,"lon":37.858236}}]}}