{"polygon":"geojson/constituency_166.geojson","registered":"50640","code":"E8E8E9D2-2552-49C7-8075-1A93D1738AD5","name":"MOLO","center":{"lat":-0.340007,"lon":35.781145},"status":"SUCCESS","region":{"location_type":"ward","locations":[{"polygon":"geojson/ward_827.geojson","registered":"17304","code":"129B7BD7-7173-4157-BBFD-0C81A12B40A5","name":"ELBURGON","center":{"lat":-0.316052,"lon":35.792398}},{"polygon":"geojson/ward_826.geojson","registered":"4276","code":"C69FA4D5-FD8C-4C6C-B3DF-50267BB25D08","name":"MARIASHONI","center":{"lat":-0.414947,"lon":35.799339}},{"polygon":"geojson/ward_829.geojson","registered":"18606","code":"5528D9D5-284E-4EB3-9FFC-99D8E8048C59","name":"MOLO","center":{"lat":-0.215441,"lon":35.754277}},{"polygon":"geojson/ward_828.geojson","registered":"10450","code":"3F10055B-B9AE-4837-98A9-4F433B82A5F5","name":"TURI","center":{"lat":-0.290782,"lon":35.737964}}]}}