{"polygon":"geojson/constituency_182.geojson","registered":"44715","code":"F1DB45B2-A907-483C-B61C-A1C1942A3AC6","name":"NAROK WEST","center":{"lat":-1.388095,"lon":35.3847},"status":"SUCCESS","region":{"location_type":"ward","locations":[{"polygon":"geojson/ward_907.geojson","registered":"12812","code":"1D8E4770-DD9C-4FB6-BF18-C3636B789A0A","name":"ILMOTIOK","center":{"lat":-0.949811,"lon":35.499658}},{"polygon":"geojson/ward_908.geojson","registered":"11994","code":"2B1B6C84-81E7-4118-BC00-EE3C9796CD2F","name":"MARA","center":{"lat":-1.171029,"lon":35.266637}},{"polygon":"geojson/ward_910.geojson","registered":"8355","code":"3194241F-F13A-4397-AC35-1EB831195244","name":"NAIKARRA","center":{"lat":-1.675014,"lon":35.566172}},{"polygon":"geojson/ward_909.geojson","registered":"11553","code":"F1088ECB-72D7-4532-B765-A3F52E0C5060","name":"SIANA","center":{"lat":-1.429999,"lon":35.37165}}]}}