{"polygon":"geojson/constituency_18.geojson","registered":"31849","code":"F7C52DD3-FED4-48B6-A26A-4C31C8C04291","name":"GARSEN","center":{"lat":-2.33553,"lon":39.510143},"status":"SUCCESS","region":{"location_type":"ward","locations":[{"polygon":"geojson/ward_89.geojson","registered":"3841","code":"8F5EF6EE-2245-486C-8AAC-796D92897893","name":"GARSEN CENTRAL","center":{"lat":-2.326102,"lon":40.206964}},{"polygon":"geojson/ward_91.geojson","registered":"6357","code":"0B2428E1-B8A5-456D-BA9A-0EA3DA0CB7DF","name":"GARSEN NORTH","center":{"lat":-2.008148,"lon":39.999678}},{"polygon":"geojson/ward_87.geojson","registered":"6492","code":"EA6509F1-BDA2-4CE7-9BCF-4E05C0EC22CF","name":"GARSEN SOUTH","center":{"lat":-2.424454,"lon":40.090158}},{"polygon":"geojson/ward_90.geojson","registered":"5885","code":"9DC6096F-5C80-4D96-B271-A8067ACA4F40","name":"GARSEN WEST","center":{"lat":-2.365921,"lon":39.318444}},{"polygon":"geojson/ward_86.geojson","registered":"4707","code":"17021C2A-EB75-4E63-A572-BF3CC971EFD0","name":"KIPINI EAST","center":{"lat":-2.487262,"lon":40.52761}},{"polygon":"geojson/ward_88.geojson","registered":"4566","code":"C7628E0C-6B3A-4DEF-9CD4-B061F8C661AF","name":"KIPINI WEST","center":{"lat":-2.550847,"lon":40.265249}}]}}