{"polygon":"geojson/constituency_136.geojson","registered":"47111","code":"F9013124-460B-41F8-A31B-AD5220BFEEC9","name":"KWANZA","center":{"lat":1.147964,"lon":34.979313},"status":"SUCCESS","region":{"location_type":"ward","locations":[{"polygon":"geojson/ward_679.geojson","registered":"9771","code":"FAA9D483-503E-40E0-B65E-5EDCF486B030","name":"BIDII","center":{"lat":1.054737,"lon":35.015151}},{"polygon":"geojson/ward_676.geojson","registered":"14081","code":"64DD59F8-1D7C-4276-9660-A981E958110F","name":"KAPOMBOI","center":{"lat":1.122143,"lon":34.932649}},{"polygon":"geojson/ward_678.geojson","registered":"8561","code":"95A83B96-EEA8-4C7C-B99F-E8E5BDFF530A","name":"KEIYO","center":{"lat":1.220946,"lon":34.960754}},{"polygon":"geojson/ward_677.geojson","registered":"14681","code":"2CED04ED-50E2-4222-8E44-5D7AB767B99C","name":"KWANZA","center":{"lat":1.13914,"lon":35.033637}}]}}