{"polygon":"geojson/constituency_109.geojson","registered":"77125","code":"FCF13C7E-E3BA-48E0-9173-72D0417C4CF7","name":"KANDARA","center":{"lat":-0.884943,"lon":37.017316},"status":"SUCCESS","region":{"location_type":"ward","locations":[{"polygon":"geojson/ward_542.geojson","registered":"12311","code":"C670BF05-238D-4F57-91D7-65F8FCFB4435","name":"GAICHANJIRU","center":{"lat":-0.867353,"lon":37.056655}},{"polygon":"geojson/ward_543.geojson","registered":"13195","code":"55A3130D-95A2-4B73-945E-B9D63F187F18","name":"ITHIRU","center":{"lat":-0.87497,"lon":36.98837}},{"polygon":"geojson/ward_541.geojson","registered":"14214","code":"C4A9FD5D-2918-482D-A63A-0D6B63AEBD14","name":"KAGUNDU-INI","center":{"lat":-0.900064,"lon":37.070827}},{"polygon":"geojson/ward_540.geojson","registered":"11794","code":"DB5EAA98-5431-4E91-A3F5-1630D53D6D79","name":"MURUKA","center":{"lat":-0.921385,"lon":37.056036}},{"polygon":"geojson/ward_539.geojson","registered":"9324","code":"BC6CC6F5-2715-42EC-8997-886A44DF463F","name":"NG'ARARIA","center":{"lat":-0.930322,"lon":37.025896}},{"polygon":"geojson/ward_544.geojson","registered":"16286","code":"2C3667CA-41F6-451E-B44F-2168D7B3DCAD","name":"RUCHU","center":{"lat":-0.826485,"lon":36.922383}}]}}